id,이름,소재지주소,위도,경도,가장 가까운 의원/병원까지의 거리(m)
4928,교동약국,"인천광역시 강화군 교동면 대룡안길 54-62, (교동면)",37.7831106,126.2792058,18510.33957
4912,바다약국,"인천광역시 강화군 내가면 중앙로 1314-1, 1층",37.7013,126.3790924,10603.57766
4908,부흥생명약국,"인천광역시 강화군 내가면 강화서로 223, (내가면)",37.7166789,126.3908558,8936.576748
4901,화도약국,"인천광역시 강화군 화도면 마니산로 728, (화도면)",37.633158,126.4173344,6521.743079
4902,바다약국,"인천광역시 중구 용유서로 298, (을왕동)",37.4452429,126.376214,4772.797279
4897,고래약국,"인천광역시 중구 공항문화로 127, 인스파이어 1층 F-12A호 (운서동)",37.4656441,126.3893026,3484.645052
4671,홍정약국,"인천광역시 연수구 국제항만대로326번길 57, 인천항 국제여객터미널 203A1호 (송도동)",37.4240183,126.6054929,1577.875462
4806,신세계약국,"인천광역시 중구 공항로 271, 인천국제공항역 지하1층 (운서동)",37.447611,126.4523468,1185.393351
1547,계양역365약국,"인천광역시 계양구 다남로 24, 계양역 8호 (귤현동)",37.5716094,126.7360234,788.6482906
64,신광약국,"인천광역시 남동구 장수로 27, 102호 (장수동, 주공아파트상가)",37.451226,126.7488268,785.8777755
3646,가연약국,"인천광역시 서구 거북로 17, 인천테크피아 가동 113 일부호 (석남동)",37.5039321,126.6642572,672.9111389
4751,참플러스 약국,"인천광역시 중구 운중로48번길 66-6, 1동 2층 201호 (운남동)",37.4877243,126.5364818,598.5694849
3271,대학약국,"인천광역시 미추홀구 방축로 216, C동 1층 102호 (도화동)",37.4779556,126.6674932,595.0059418
3411,이화당약국,"인천광역시 동구 방축로 191, 인천교자동차매매단지 1층 123,124호 (송림동)",37.4798438,126.6651229,493.1407117
4946,종로약국,"인천광역시 옹진군 백령면 백령로 276-1, 혜원약국",37.9713437,124.7180301,454.7915873
4759,태평양약국,"인천광역시 옹진군 영흥면 영흥북로 11, (영흥면)",37.2559819,126.4975912,454.4173168
3156,푸른약국,"인천광역시 미추홀구 수봉로182번길 45, (주안동)",37.4574174,126.6672132,444.8936665
4853,강화정문약국,"인천광역시 강화군 강화읍 충렬사로 25, (강화읍)",37.7367055,126.4859805,436.4395026
3575,인하후문약국,"인천광역시 미추홀구 인하로 73-1, 1층 우측호 (용현동)",37.4514377,126.6565976,429.9144667
3541,인하사랑약국,"인천광역시 미추홀구 인하로77번길 6, (용현동)",37.4513449,126.6572172,418.178197
85,꽃길약국,"인천광역시 남동구 소래역남로 20, (논현동)",37.3981092,126.734733,416.0123084
2376,보건약국,"인천광역시 연수구 원인재로 216, 연수1차,승기마을,원인재마을 115호 (연수동)",37.4151369,126.6865353,414.9254749
4855,남산약국,"인천광역시 강화군 강화읍 충렬사로 24, 1층",37.7372193,126.4858089,412.0359442
3589,스마트약국,"인천광역시 연수구 송도미래로 30, 송도 BRC 스마트밸리 지식산업센터 E동 204호 일부호 (송도동)",37.3668854,126.648443,388.5887073
2164,서울당약국,"인천광역시 부평구 부평북로 159, (청천동)",37.5227333,126.7108617,374.4979983
3105,가좌약국,"인천광역시 서구 건지로318번길 32, (가좌동)",37.4959448,126.6770933,370.4901713
4638,365마리나약국,"인천광역시 연수구 랜드마크로 110, 근린생활시설1동 115호 (송도동, 송도 오션파크 베르디움)",37.4152393,126.6158059,368.0278507
3001,정성약국,"인천광역시 미추홀구 신기길58번길 43-3, (주안동)",37.445461,126.6744018,356.8843443
505,허준한약국,"인천광역시 계양구 용마루6길 8, 1층 (용종동)",37.5431935,126.744645,335.8510352
3077,편안한약국,"인천광역시 서구 원적로27번길 11, (가좌동)",37.4893994,126.6788886,329.4197062
4771,동행약국,"인천광역시 중구 영종대로162번길 20, 107호 (운서동)",37.4924355,126.4953971,299.0338311
4417,옵티마대학약국,"인천광역시 중구 서해대로 366, 정석빌딩 4동(별관) 1층 (신흥동3가)",37.4596101,126.6326487,298.1900788
4418,정석온누리약국,"인천광역시 중구 서해대로 366, 정석빌딩 신관동 B1층 102호 (신흥동3가)",37.4596101,126.6326487,298.1900788
4291,3층생기약국,"인천광역시 연수구 인천타워대로 323, 송도 센트로드 상가동 3층 디307호 (송도동)",37.3992143,126.630176,293.2181426
3205,성모사랑약국,"인천광역시 서구 심곡로100번길 15, (심곡동)",37.5420315,126.6826872,289.5801648
3206,토마토약국,"인천광역시 서구 심곡로100번길 17-3, 1~3층 (심곡동)",37.5421341,126.6826962,279.0101387
3059,다나은약국,"인천광역시 서구 원적로 15, 가동 101호 (가좌동, 삼화연립)",37.4884607,126.6795111,271.8332075
752,가까운정문약국,"인천광역시 남동구 논현로 69, 하늘마을휴먼시아3단지 상가비동 103, 201, 202호 (논현동)",37.4020292,126.7141395,271.3031797
753,가장큰태평양약국,"인천광역시 남동구 논현로 69, 하늘마을휴먼시아3단지 상가비동 105~108호 (논현동)",37.4020292,126.7141395,271.3031797
754,으뜸온누리약국,"인천광역시 남동구 논현로 69, 하늘마을휴먼시아3단지 상가비동 104호 (논현동)",37.4020292,126.7141395,271.3031797
4283,대황약국,"인천광역시 중구 제물량로24번길 6-34, (신흥동3가)",37.4617952,126.6380041,270.3527239
3213,크린팜대학약국,"인천광역시 서구 심곡로100번길 17-5, 1층 (심곡동)",37.5422882,126.6826736,262.1795626
4491,원지당약국,"인천광역시 중구 제물량로 121, (답동)",37.4688504,126.6301658,251.0431552
4688,인일약국,"인천광역시 중구 연안부두로 9, (항동7가)",37.4565314,126.6047049,250.2064426
3048,한샘약국,"인천광역시 서구 원적로 29, 나동 4호 (가좌동, 한샘상가)",37.4897425,126.6799579,250.1802753
3047,메디팜성모약국,"인천광역시 서구 원적로 29, (가좌동)",37.4897425,126.6799579,250.1802753
924,행복한온누리약국,"인천광역시 부평구 동수로 54, (부평동)",37.4851504,126.7245625,241.7419072
1994,금호옵티마약국,"인천광역시 부평구 안남로 272, (청천동)",37.5070832,126.7122637,240.248206
2529,기린한약국,"인천광역시 부평구 원적로 265, (산곡동)",37.5050134,126.6957531,239.976137
3240,더사랑약국,"인천광역시 서구 가경주로40번길 20-10, 1호 (가정동)",37.5163566,126.6758308,238.9111334
5071,연세하나약국,"인천광역시 남동구 비류대로 622, 1층 109호,110호 (남촌동)",37.4222325,126.7035974,233.7245
4549,중앙약국,"인천광역시 중구 참외전로72번길 22-7, (전동)",37.4769743,126.6284256,232.5464069
4469,메디온정문약국,"인천광역시 중구 답동로30번길 9, (경동)",37.4715294,126.6321588,232.3895624
4577,단오약국,"인천광역시 서구 완정로178번길 31, (마전동, 목화아파트)",37.6045004,126.6585119,231.0160277
950,성모메디칼약국,"인천광역시 부평구 동수로 49-2, (부평동)",37.4853913,126.7242947,219.2717701
2353,파란샘온누리약국,"인천광역시 연수구 원인재로 237, 107호 (연수동, 대우1차@상가)",37.4174296,126.6876235,214.9184887
2963,보건온누리약국,"인천광역시 미추홀구 석바위로 42, (주안동)",37.4605635,126.6775607,211.9866194
3567,안약국,"인천광역시 미추홀구 수봉로 55, (숭의동)",37.4616413,126.6583065,207.0687448
906,무구팜코끼리약국,"인천광역시 부평구 동수로 55, (부평동)",37.4854551,126.7247572,206.6317795
1379,백세약국,"인천광역시 남동구 석산로 202, 1층 105호~106호 (구월동)",37.4605629,126.7143833,205.7569261
4760,영흥우리약국,"인천광역시 옹진군 영흥면 영흥로156번길 12-15, (영흥면)",37.2575594,126.4955906,205.4943271
4207,대경약국,"인천광역시 중구 인중로26번길 21, (도원동)",37.4642353,126.6402927,205.0716847
903,메디칼정문약국,"인천광역시 부평구 동수로 57, (부평동)",37.4854747,126.7248569,204.254121
856,꽃님이약국,"인천광역시 부평구 동수로 57-1, (부평동)",37.48551,126.7250556,201.0723263
905,옵티마부평성모약국,"인천광역시 부평구 육동로 2, (부평동)",37.4855526,126.7248025,195.6572066
3125,늘봄약국,"인천광역시 서구 길주로136번길 32-1, 1층 (석남동)",37.5031053,126.6768301,194.4184537
686,정우약국,"인천광역시 계양구 효서로 381, 상가동 (작전동, 현대2차아파트)",37.5293419,126.7370703,192.541864
4474,경기약국,"인천광역시 중구 답동로30번길 3, (경동)",37.4715489,126.6316934,192.2055396
2545,독일약국,"인천광역시 미추홀구 석정로 459, (주안동)",37.4663798,126.6866635,190.9989704
2453,문학모범약국,"인천광역시 미추홀구 매소홀로 578, 1층 (문학동)",37.4382726,126.6862395,188.9291722
795,서울대학약국,"인천광역시 부평구 동수로 61, 108호~112호,206호일부,207호,208호일부 (부평동)",37.4855958,126.7254245,187.7430676
797,천사약국,"인천광역시 부평구 동수로 61, 공익스포렉스빌딩 1층 101호 (부평동)",37.4855958,126.7254245,187.7430676
4214,미소탑약국,"인천광역시 서구 청마로 17, 준성빌딩 104, 105호 (당하동)",37.5923763,126.6705542,187.3825851
2950,신보건약국,"인천광역시 미추홀구 주안서로 26-1, 1층 (주안동)",37.4610207,126.6778995,183.8816875
2004,한결약국,"인천광역시 계양구 계산천서로22번길 1, (계산동)",37.5416605,126.7206968,183.4115911
4209,탑스타약국,"인천광역시 서구 청마로7번길 6, 1층 일부호 (당하동)",37.5929307,126.6708874,181.6579837
2181,한진약국,"인천광역시 남동구 경인로524번길 16, (간석동, 한진아파트)",37.4592292,126.6976042,178.4284061
2378,십정약국,"인천광역시 부평구 배곶남로9번길 22, (십정동)",37.4724651,126.6944563,174.7393638
4895,평생약국,"인천광역시 강화군 강화읍 강화대로 440, (강화읍)",37.7477646,126.4829639,174.6189982
1544,호성약국,"인천광역시 계양구 계산로126번길 24, (작전동)",37.5352476,126.7258679,173.9821546
84,가까운약국,"인천광역시 남동구 소래역로 38, 젠트라움논현 1층 107호 (논현동)",37.4006278,126.7352187,173.5387056
4208,사랑탑약국,"인천광역시 서구 청마로19번길 3, 1층 (당하동, 드림빌딩)",37.592395,126.6707201,173.4190777
67,중앙약국,"인천광역시 부평구 무네미로 453, (구산동)",37.476693,126.7516994,170.6586305
3883,조은나라약국,"인천광역시 서구 검단로 842, 206호 (불로동, 월드불로마트)",37.6186271,126.6908918,170.0096828
1479,다사랑약국,"인천광역시 남동구 독점로3번길 10-24, 1층일부호 (구월동)",37.4510367,126.7104375,165.8460195
2360,청솔약국,"인천광역시 부평구 마장로 462, (청천동)",37.5193748,126.7048805,163.9351618
3381,자생약국,"인천광역시 서구 거북로 74-1, (석남동)",37.5030978,126.6700364,163.5616029
1532,고운정약국,"인천광역시 남동구 남동대로922번길 52, 1층 일부 (간석동)",37.464687,126.7112148,162.525355
3412,동신온누리약국,"인천광역시 미추홀구 소성로 93, 1층 (학익동)",37.4450587,126.6595339,160.2855503
1619,정성약국,"인천광역시 계양구 하느재로20번길 18, 1층 (계산동)",37.5451539,126.7269835,158.5983107
4692,블루약국,"인천광역시 서구 보듬로 146, 메트로밸리 112호 (오류동)",37.5952841,126.6134433,157.5602163
3642,오메가약국,"인천광역시 동구 봉수대로 82, 1층 (송림동)",37.4830655,126.6603503,157.0169941
815,인천세중온누리약국,"인천광역시 계양구 계양문화로 19, 우성프라자 104~107호 (작전동)",37.5324638,126.7359803,155.836614
814,우리들약국,"인천광역시 계양구 계양문화로 19, 우성프라자 1층 101-103호 (작전동)",37.5324638,126.7359803,155.836614
819,가까운 대학 약국,"인천광역시 계양구 계양문화로 21, 101-104호 (작전동)",37.5326819,126.7360009,153.3961295
3322,팜프라자365약국,"인천광역시 미추홀구 숙골로88번길 12, 1-54, 55호 (도화동, 더샵 인천스카이타워 1단지)",37.4702444,126.6652006,152.4062555
3819,서해안약국,"인천광역시 미추홀구 용삼길 34, (용현동)",37.4577083,126.6516039,150.6089725
813,정문약국,"인천광역시 계양구 계양문화로 15, 마이더스빌딩 1층 (작전동)",37.532178,126.7359185,149.7830168
4503,신흥약국,"인천광역시 중구 제물량로 131, (답동)",37.4692821,126.629029,147.6654545
2990,삼호약국,"인천광역시 연수구 함박뫼로12번길 1, (청학동)",37.4186343,126.671562,147.0700286
961,동광약국,"인천광역시 부평구 부흥로 314-1, (부평동)",37.4981629,126.7268337,146.9308124
4480,백주년약국,"인천광역시 중구 개항로 78, 1층 (경동)",37.4716207,126.63118,146.597389
1508,새롬약국,"인천광역시 부평구 부평대로 171-11, 1층 (청천동)",37.5065035,126.7200222,145.5054704
1506,정문약국,"인천광역시 남동구 인주대로653번길 36, 1층 (구월동)",37.4513746,126.709882,145.4498261
3324,원광한약국,"인천광역시 서구 탁옥로98번길 1, 106호 (심곡동)",37.5434713,126.6806957,143.788707
5094,인아온누리약국,"인천광역시 남동구 인주대로604번길 46, 101,102호 (구월동)",37.4476514,126.7035907,139.5084868
1239,늘푸른약국,"인천광역시 계양구 임학동로9번길 2, (임학동)",37.5441219,126.7345762,138.7937137
4653,인혜약국,"인천광역시 동구 화도진로 187, 201호 (만석동, 만석비치타운주공아파트상가)",37.4856808,126.6213027,135.8596009
614,한교약국,"인천광역시 계양구 도두리로 52, 204호 (작전동)",37.5323553,126.7392957,134.7192776
4189,복지약국,"인천광역시 동구 금곡로 66, (금곡동)",37.4731302,126.6427439,133.1560626
3836,하늘약국,"인천광역시 연수구 컨벤시아대로 177, 2층 (송도동, 롯데마트)",37.3882744,126.6434307,131.442975
3997,만화약국,"인천광역시 미추홀구 미추로 25, (숭의동)",37.4623947,126.6469469,131.187657
1507,메디칼안약국,"인천광역시 부평구 부평대로 171-9, (청천동)",37.5065389,126.7202092,130.9738246
600,더조은약국,"인천광역시 부평구 후정로 33, 근린생활시설동 1층 103~104호 (삼산동, 부평삼산 신원아침도시)",37.5203752,126.7364647,130.4913594
2178,모범약국,"인천광역시 계양구 효서로 142, (효성동)",37.5276245,126.7116532,128.068372
1893,인천터미널약국,"인천광역시 미추홀구 연남로 35, (관교동,인천터미널 1층)",37.4424853,126.7013784,125.9605638
1914,휴베이스센트럴약국,"인천광역시 미추홀구 연남로 35, 인천종합터미널,롯데백화점 지하1층 (관교동)",37.4424853,126.7013784,125.9605638
481,평화약국,"인천광역시 부평구 동수로120번길 11, 101호 (부개동, 한국상가)",37.4838849,126.7318584,124.8970649
2108,남동약국,"인천광역시 남동구 은청로 4-7, 남동공단산업용품상가 A동 1층 150호 (고잔동)",37.4069465,126.693402,124.4248717
4644,누리약국,"인천광역시 서구 검단로445번길 18, 107-1호 (왕길동, SM프라자)",37.6024834,126.6542179,124.3350803
774,한일약국,"인천광역시 남동구 남촌동로15번길 12, (남촌동)",37.4314729,126.7169875,123.8179747
3462,성민메디칼약국,"인천광역시 서구 신석로 68, (석남동)",37.5098665,126.6695273,117.979673
3456,플러스약국,"인천광역시 서구 칠천왕로33번길 18, 1층 (석남동)",37.5094822,126.6698266,117.4739834
2452,한신약국,"인천광역시 미추홀구 경원대로 717, (주안동)",37.4468883,126.6874809,117.3889879
1498,정문약국,"인천광역시 부평구 부평대로 171-5, (청천동)",37.5065928,126.7204114,116.7327978
2068,으뜸약국,"인천광역시 계양구 효서로 182, (효성동, 풍림아파트)",37.5277801,126.7158136,114.922654
210,세민약국,"인천광역시 부평구 수변로 64, (부개동)",37.4921399,126.7408605,114.490591
3797,종로5가약국,"인천광역시 미추홀구 인주대로 131, 1층 (용현동)",37.4566286,126.6517509,113.6615092
4197,메디탑약국,"인천광역시 서구 청마로19번길 9, 101호 (당하동)",37.5923719,126.6714153,113.3355425
4830,보배약국,"인천광역시 강화군 강화읍 중앙로 17-9, 강화풍물시장 C-30호",37.7413984,126.4928111,108.008704
4893,감초약국,"인천광역시 강화군 강화읍 강화대로 431, (강화읍)",37.747159,126.4836372,106.0318442
1493,허브약국,"인천광역시 부평구 부평대로 171, (청천동)",37.5066433,126.7205858,105.8385189
2140,세광한약국,"인천광역시 부평구 마장로264번길 68-20, (산곡동)",37.5002752,126.706525,103.9973191
3815,보은약국,"인천광역시 미추홀구 인주대로 130, 1층 (용현동)",37.4562554,126.6514368,103.896766
2110,영약국,"인천광역시 미추홀구 문화로 45, (관교동)",37.4431434,126.6975846,103.2082214
4063,코끼리약국,"인천광역시 미추홀구 인주대로35번길 36-7, 1층 (숭의동)",37.4612224,126.6432789,102.9236374
1066,경희당한약국,"인천광역시 부평구 대정로36번길 1, 1층 (부평동)",37.4958251,126.72483,101.7254352
1101,부평365약국,"인천광역시 부평구 광장로 15, 지하부평역 지하2층 3호 (부평동)",37.4904473,126.7234864,98.54815893
691,판도라계양메디칼약국,"인천광역시 계양구 오조산로7번길 6-14, 람세스빌2 1층 (작전동)",37.5320967,126.7376882,98.09436155
2419,위민약국,"인천광역시 부평구 세월천로 77, 1층 (산곡동)",37.5132179,126.7007822,97.39530692
4726,달빛약국,"인천광역시 중구 하늘달빛로 76, 동명프라자 104호 (중산동)",37.4862124,126.5590047,97.36126027
4641,검단제일약국,"인천광역시 서구 완정로 197, 103,104호 (왕길동)",37.6027629,126.6545805,95.58320852
982,새시장약국,"인천광역시 부평구 시장로51번길 27, (부평동)",37.4953372,126.7260354,95.38622497
3557,예방원한약국,"인천광역시 연수구 해돋이로120번길 23, 아크리아빌딩2 505호 (송도동)",37.3942319,126.6508013,94.28450471
2555,우일약국,"인천광역시 미추홀구 동주길135번길 20-6, (주안동)",37.4574961,126.6839782,93.28672311
1018,보현약국,"인천광역시 계양구 장제로 859, (임학동)",37.5440494,126.7374792,93.24780066
3075,명성약국,"인천광역시 서구 신진말로 37-1, (가좌동)",37.4933365,126.6799603,90.30845695
3449,삼육오사랑약국,"인천광역시 서구 칠천왕로33번길 14, 1층 일부호 (석남동)",37.5094628,126.6704045,89.77123299
1552,구월대형약국,"인천광역시 남동구 남동대로 780, 1,2층 1호 (구월동)",37.4519501,126.7084598,88.57252878
1932,경민약국,"인천광역시 부평구 원적로416번길 20, 한신산곡상가동 101호 (산곡동, 부평산곡한신아파트)",37.5028131,126.7119763,87.91164813
2053,보광약국,"인천광역시 남동구 경인로 586, (간석동)",37.4641724,126.7029267,87.29128291
502,청원약국,"인천광역시 계양구 도두리로 70, 101호 (작전동, 대동아파트상가)",37.5333891,126.7420613,87.20405656
166,희망약국,"인천광역시 남동구 만수로100번길 3, (만수동)",37.4639672,126.7375352,86.35170887
4698,미소약국,"인천광역시 중구 하늘별빛로65번길 11, 해솔프라자 1층 101호 (중산동)",37.4885699,126.563372,84.2115866
1733,어울림약국,"인천광역시 남동구 석산로 138, 1-104호 (간석동, 어울림아파트상가)",37.459103,126.7067524,83.55818232
452,자애약국,"인천광역시 부평구 동수로128번길 17-4, (부개동)",37.4843497,126.7338899,83.28287744
1226,새은혜약국,"인천광역시 부평구 부흥로 285, (부평동)",37.4988065,126.7237202,82.91132732
1995,효성현대약국,"인천광역시 계양구 새벌로 108, 상가동 110호 (효성동)",37.5265531,126.7168444,82.40802355
2698,청학약국,"인천광역시 연수구 청능대로 87, 롯데마트 연수점 지하1층 (청학동)",37.41513,126.6751843,81.7569165
1702,보리약국,"인천광역시 남동구 남동대로837번길 23, 수경프라자 1층 102호 (간석동)",37.4576699,126.7071946,81.15299865
4106,중화약국,"인천광역시 미추홀구 석정로 16, (숭의동)",37.4611385,126.6425588,80.09764876
3799,대영약국,"인천광역시 미추홀구 인주대로132번길 6, (용현동)",37.4560868,126.6516625,77.28720167
4575,한독약국,"인천광역시 동구 석수로 22, (화수동)",37.4802703,126.6275593,77.2555172
3098,대마옵티마약국,"인천광역시 미추홀구 제일로 21-2, (도화동)",37.4590902,126.6727369,77.02205196
3800,가까운무궁화약국,"인천광역시 미추홀구 인주대로128번길 7-10, 1층 (용현동)",37.4559523,126.651612,75.85400331
4184,호랑이약국,"인천광역시 연수구 인천타워대로 257, 아트포레 A동 1층 123호 (송도동)",37.3938049,126.6332243,75.289666
4772,참약사 운서365공항약국,"인천광역시 중구 영종대로 124, 한정빌딩 1층 101호 (운서동)",37.4947501,126.4930864,75.04797099
723,건강약국,"인천광역시 계양구 봉오대로 785, (주)이마트 (작전동)",37.531069,126.7370059,73.54188694
5101,종로세명약국,"인천광역시 남동구 호구포로 221, 남동메디칼센터 107호 (논현동)",37.4027938,126.7096879,72.48447552
1650,신세계온누리약국,"인천광역시 계양구 계산로111번길 8, (계산동)",37.5380644,126.7246544,72.29309908
4501,인천약국,"인천광역시 중구 홍예문로98번길 7, (인현동)",37.476164,126.6304593,72.05440989
3317,푸른솔약국,"인천광역시 서구 고산후로95번길 32, 명진프라자 1층 102호 (당하동)",37.5927544,126.6955835,70.85816517
3339,대은약국,"인천광역시 미추홀구 인하로119번길 13, (용현동)",37.4506601,126.6615694,70.72898313
3794,건강효약국,"인천광역시 미추홀구 인주대로132번길 12, 1층 (용현동)",37.4558404,126.6516548,69.65098424
1649,구월메디칼약국,"인천광역시 남동구 인주대로623번길 54, 1층 (구월동)",37.4523382,126.7068235,69.24836441
2051,공단약국,"인천광역시 남동구 남동대로239번길 72-20, 두레비지니스센터 101-4호 (논현동)",37.4091794,126.6956862,67.42275551
7,다나약국,"인천광역시 남동구 장아산로 186, 정산빌딩 1층 104호 (서창동)",37.4349141,126.7514998,67.15112916
2794,희망약국,"인천광역시 연수구 청명로 5, 1층 (청학동)",37.4166041,126.6742079,65.7615093
3999,불로스타약국,"인천광역시 서구 검단로 759, 103호 (불로동)",37.6134169,126.6846779,65.48070193
1026,용한당한약국,"인천광역시 부평구 대정로35번길 14, (부평동)",37.4962108,126.7257336,65.02320735
3451,성민대학약국,"인천광역시 서구 길주로75번길 35, 1층 (석남동)",37.5097261,126.6703929,64.26027198
4712,튼튼약국,"인천광역시 중구 하늘중앙로195번길 11, 더테라스 103호 (중산동)",37.4899636,126.5610877,62.05159307
4423,해동약국,"인천광역시 동구 화도진로44번길 24, (송현동)",37.4762102,126.6349068,61.10181599
3710,연세온누리약국,"인천광역시 서구 승학로 321, 1층 (연희동)",37.5503344,126.673713,60.95754376
2719,다온약국,"인천광역시 미추홀구 미추홀대로722번길 12, 한국빌딩 101호 (주안동)",37.4617395,126.6810249,60.7765559
4060,뉴(new)현대약국,"인천광역시 미추홀구 인주대로35번길 46, 숭의동 근린생활시설 1층 (숭의동)",37.4616278,126.6433868,58.41780906
4061,유(U)정문약국,"인천광역시 미추홀구 인주대로35번길 46, 1,2층 일부(전면부)호 (숭의동)",37.4616278,126.6433868,58.41780906
1519,보약국,"인천광역시 계양구 주부토로 517, 도우프라자 1층 (계산동)",37.5404309,126.7280667,55.59278773
1430,대우약국,"인천광역시 부평구 평천로 306, (갈산동)",37.5171232,126.7244344,55.42801161
3988,으뜸약국,"인천광역시 서구 한중로 10, 메르시타워 109호 (백석동)",37.5776679,126.6738098,54.91671604
1225,대한약국,"인천광역시 부평구 부평대로 44, (부평동)",37.4954433,126.7230288,54.50241075
3407,건강플러스약국,"인천광역시 미추홀구 매소홀로 340, 209호 (학익동, 풍림아이원아파트상가)",37.4413136,126.659078,53.00183964
2776,백화점약국,"인천광역시 미추홀구 미추홀대로 722, (주안동)",37.4617659,126.6805097,52.75017644
4846,모던 한방약국,"인천광역시 강화군 강화읍 중앙로 18, (강화읍)",37.7415199,126.4910373,51.60662004
4102,옵티마강남약국,"인천광역시 서구 청라에메랄드로 84, 딜라이트타워2 106호 (청라동)",37.5325946,126.6568243,51.51704419
2537,문학사랑약국,"인천광역시 미추홀구 소성로326번길 4, (문학동)",37.4373867,126.6832653,51.47286017
2897,온누리동산약국,"인천광역시 미추홀구 길파로 26, (주안동)",37.4680728,126.6798064,50.59941821
3431,중앙약국,"인천광역시 서구 길주로75번길 36, (석남동)",37.5097585,126.6707307,50.38565998
87,경희논현한약국,"인천광역시 남동구 장도로 4, 105호 (논현동)",37.4050457,126.7352009,50.1932628
2734,라성약국,"인천광역시 미추홀구 미추홀대로722번길 8, (주안동)",37.4617247,126.6807975,49.92645483
261,한마음약국,"인천광역시 남동구 만수로 14-70, (만수동)",37.4559574,126.7331323,49.59089443
4350,정성약국,"인천광역시 중구 도원로7번길 1, (신흥동3가)",37.4652583,126.6361913,48.60251461
1465,대학당약국,"인천광역시 계양구 주부토로 468, (작전동, 삼천리3차아파트상가)",37.5357806,126.7282932,48.55758813
1144,새정성약국,"인천광역시 부평구 동수로 28, 101호 (부평동, 샬렛주상상가)",37.484665,126.72165,48.42975728
3144,한국약국,"인천광역시 서구 서달로163번길 9, (석남동)",37.5130743,126.677916,47.82966581
3215,정든약국,"인천광역시 서구 가정로 124, (가좌동)",37.4957255,126.6718346,47.50372674
3216,보건약국,"인천광역시 서구 거북로 104, (석남동, 한승빌딩)",37.5028915,126.6732626,47.10853161
593,섬초약국,"인천광역시 부평구 장제로76번길 8, 103호 (부평동, 원일팰리스)",37.4920675,126.7304651,46.90030248
1660,신성모약국,"인천광역시 남동구 인주대로623번길 60, 구월빌딩 (구월동)",37.4526099,126.7068434,46.67215157
3103,도화약국,"인천광역시 미추홀구 한나루로 585, (도화동)",37.4584845,126.6717119,46.39545614
4704,해마루약국,"인천광역시 중구 하늘별빛로 75, 1층 (중산동)",37.4898111,126.562803,46.36089236
339,평원약국,"인천광역시 남동구 백범로180번길 93, (만수동)",37.4610791,126.7323405,46.14109439
1520,훼미리약국,"인천광역시 남동구 독점로3번길 26, 교동빌딩 (구월동)",37.4501239,126.70922,45.54203655
2655,제일약국,"인천광역시 미추홀구 인주대로 396, 1층 (주안동)",37.4509661,126.6806505,45.4351086
4828,강화건강약국,"인천광역시 강화군 강화읍 강화대로312번길 12, (강화읍)",37.7420408,126.4961832,45.16154397
605,부평드림약국,"인천광역시 부평구 장제로 82, (부평동)",37.4928298,126.7301789,43.47498499
227,양지약국,"인천광역시 남동구 백범로 119, 1층 (만수동)",37.4544131,126.7335655,43.06757352
2038,구월중앙약국,"인천광역시 남동구 예술로 230, 청진네오스빌 101호 (구월동)",37.4545557,126.7021254,42.78559489
2148,용한약국,"인천광역시 부평구 열우물로50번길 9-2, (십정동)",37.4731688,126.7008714,42.71132907
2569,정약국,"인천광역시 미추홀구 경인로 391, (주안동)",37.4585713,126.6835638,42.30531579
1770,21세기약국,"인천광역시 계양구 경명대로 1055, (계산동)",37.5437622,126.7242851,42.19100108
3122,주안백화점약국,"인천광역시 미추홀구 한나루로 500-1, (주안동)",37.4515427,126.6676483,41.57344815
4003,인소망약국,"인천광역시 미추홀구 미추로 52, (숭의동)",37.4645971,126.6462466,41.43634099
1471,모범약국,"인천광역시 남동구 인주대로 660, (구월동)",37.4493163,126.710379,41.24059931
4306,하나로약국,"인천광역시 미추홀구 토금중로 13, (용현동)",37.453877,126.6356923,41.20140201
1661,건강길약국,"인천광역시 남동구 인주대로623번길 62, 1층일부, 2층전부호 (구월동)",37.4526987,126.7068432,40.95954973
2762,행복한약국,"인천광역시 미추홀구 미추홀대로722번길 6, (주안동)",37.461665,126.6806556,40.8182737
3310,제일약국,"인천광역시 서구 심곡로 133, 대동상가동 1층 111호 (심곡동)",37.5448709,126.6816174,40.63637458
4890,다나약국,"인천광역시 강화군 강화읍 동문안길 3, (강화읍)",37.7471686,126.4852875,40.41439676
2124,큰샘약국,"인천광역시 남동구 문화서로4번길 41-2, (구월동)",37.4448825,126.6973808,39.9670081
3706,연희연세약국,"인천광역시 서구 서곶로369번길 24, 1층 (연희동)",37.5505673,126.6741005,39.93808609
5020,삼천당약국,"인천광역시 부평구 시장로 35-2, (부평동)",37.4941609,126.7260953,39.81139054
3350,석남우리약국,"인천광역시 서구 가정로 291, (석남동)",37.5109356,126.6723222,39.57987574
169,온누리은혜약국,"인천광역시 남동구 장승로 14, (만수동)",37.4461693,126.7342888,39.152287
507,온누리미성약국,"인천광역시 남동구 백범로 206, (만수동)",37.4599551,126.7263243,38.85669068
160,아름약국,"인천광역시 부평구 경인로1104번길 14-2, (부개동)",37.4852219,126.7421347,38.84436466
4107,인일약국,"인천광역시 동구 금곡로82번길 14, 솜림동동 1층 (송림동)",37.4726667,126.6443903,38.31554445
4169,백제당약국,"인천광역시 미추홀구 아암대로29번길 77, 1층 (용현동)",37.4567233,126.6407447,37.95726587
1888,올리브약국,"인천광역시 남동구 성말로13번길 20, 101호 (구월동)",37.4462941,126.7024286,37.72229981
2377,건강나누리약국,"인천광역시 미추홀구 인주대로 489, 1층 (주안동)",37.450929,126.6910393,37.61125729
599,부평우리약국,"인천광역시 부평구 장제로 74, (부평동)",37.4921137,126.7301095,37.45799586
645,사랑나누리약국,"인천광역시 부평구 장제로 154, (부평동)",37.4992083,126.7308218,37.2861421
2616,제도약국,"인천광역시 미추홀구 인하로 296, 108,109호 (주안동, 쌍용A상가내)",37.4475686,126.6810388,36.90492029
2617,푸르미약국,"인천광역시 미추홀구 인하로 296, 쌍용아파트상가 107호 (주안동)",37.4475686,126.6810388,36.90492029
1530,21세기길약국,"인천광역시 남동구 독점로29번길 30, 103,105호 (구월동)",37.4525294,126.7092982,36.46437088
1611,세진약국,"인천광역시 계양구 봉오대로 669, 1층 (작전동)",37.530908,126.723342,36.37094545
2910,다온약국,"인천광역시 서구 발산로 23, 다온프라자2차 101호,102호 (원당동)",37.5929149,126.7106249,36.36064933
642,부흥온누리약국,"인천광역시 부평구 장제로 160, 104호 (부평동, 갤럭시아파트)",37.4998433,126.7310576,36.34117038
1453,사랑애약국,"인천광역시 계양구 경명대로 1111, 금보플라자 1층 101호 (계산동)",37.5434137,126.7305535,35.91298391
1043,이약국,"인천광역시 남동구 백범로 275, (간석동, 1층일부)",37.4614433,126.7188484,35.67483079
562,현대약국,"인천광역시 남동구 구월로 306, 상가동 108호 (만수동)",37.4553475,126.7244201,35.65322155
1386,생활과건강약국,"인천광역시 남동구 용천로 154, 101~103호 (간석동)",37.4632217,126.7147604,35.02068503
3700,대학약국,"인천광역시 서구 새오개로 37, (석남동)",37.5135974,126.6651272,34.93608978
1687,청운약국,"인천광역시 계양구 계양대로 96, (작전동)",37.5324018,126.7228817,34.76589461
1543,새길약국,"인천광역시 남동구 독점로29번길 38, (구월동, 1층)",37.4525511,126.7088491,34.70225718
3201,넘버원약국,"인천광역시 미추홀구 소성로 133, (학익동)",37.4433788,126.6636392,34.539569
1545,속편한약국,"인천광역시 부평구 길주로508번길 25, (청천동)",37.5063211,126.7187316,34.50149937
262,참정다운약국,"인천광역시 남동구 소래로669번길 38, 1층 4호 (만수동)",37.4501169,126.7321912,33.91578452
5028,서울약국,"인천광역시 미추홀구 독정이로 25-1, (용현동)",37.4582225,126.6539414,33.2406267
3409,송도프라자약국,"인천광역시 연수구 한나루로 194-3, (옥련동)",37.426447,126.6572206,33.18584678
4889,진약국,"인천광역시 강화군 강화읍 동문안길 6, (강화읍)",37.7469974,126.4855179,32.80367879
1412,강약국,"인천광역시 남동구 용천로 170, (간석동)",37.4647532,126.7144834,32.72828996
5108,큰길약국,"인천광역시 부평구 부평대로 37-2, 1층 (부평동)",37.494861,126.7224453,32.31490269
4220,하늘온누리약국,"인천광역시 미추홀구 낙섬중로32번길 15, (용현동)",37.4511038,126.6380243,32.02994268
3565,신현프라자약국,"인천광역시 서구 율도로 55, (신현동)",37.5137896,126.6683566,31.32710852
3930,초록약국,"인천광역시 미추홀구 독배로 395, 와이지메디컬센터 108호 (용현동)",37.4551454,126.6489383,31.30279423
1747,우리약국,"인천광역시 계양구 계양대로 121, 107호 (작전동, 계산예술극장)",37.5346893,126.7222355,31.26872221
1818,푸른나무약국,"인천광역시 계양구 계양대로 202, 1층 (계산동)",37.5418422,126.7229826,31.12636815
2293,하나약국,"인천광역시 부평구 길주로 378, 문명빌딩 1층 일부호 (산곡동)",37.5083264,126.7040549,31.10059567
2446,석바위약국,"인천광역시 미추홀구 경원대로 862, 1층 (주안동)",37.4596401,126.6898381,30.98874702
2262,해봄약국,"인천광역시 부평구 마장로324번길 8-15, 102호 (산곡동)",37.5062375,126.7040419,30.76025256
2167,한약국,"인천광역시 남동구 문화서로 26, (구월동)",37.4474677,126.6962543,30.75822083
3685,바로약국,"인천광역시 미추홀구 수봉로 20, 1층 (숭의동)",37.4643936,126.6561666,30.60956673
4877,은화약국,"인천광역시 강화군 강화읍 강화대로 404, (강화읍)",37.7464122,126.4863685,30.58576302
1890,새대찬약국,"인천광역시 남동구 인주대로 594, 1층 (구월동)",37.4497385,126.7028521,30.30522604
4477,길메디칼약국,"인천광역시 중구 큰우물로 22-1, (용동)",37.4738575,126.6316646,30.2333398
2486,나라약국,"인천광역시 미추홀구 인주대로458번길 6, (주안동)",37.4505869,126.687242,29.83337934
3423,정다운온누리약국,"인천광역시 서구 가정로 398, 105호 (가정동, 서해프라자)",37.5203961,126.6733367,29.55762294
592,구월조은약국,"인천광역시 남동구 구월말로3번길 20-1, (구월동, 1층일부)",37.4493846,126.7230347,28.74076774
2618,더편한약국,"인천광역시 미추홀구 인주대로 404, 1층 (주안동)",37.4510599,126.6814652,28.49505915
5011,부개시장온누리약국,"인천광역시 부평구 부개로 71-12, 2동 157,158,160,161호 (부개동)",37.5043762,126.7393862,28.49188663
2764,주안약국,"인천광역시 미추홀구 미추홀대로 704, 1층 (주안동)",37.460156,126.6804073,28.00800998
3133,효성약국,"인천광역시 미추홀구 한나루로 499-3, 1층 (용현동)",37.4515586,126.6671507,27.96518303
1623,세계로약국,"인천광역시 남동구 백범로 376, 106호 (간석동, 도시타워)",37.4666914,126.7094961,27.72352827
1518,사랑길약국,"인천광역시 남동구 독점로29번길 24, (구월동)",37.4525128,126.7096067,27.6498855
2189,윤약국,"인천광역시 남동구 문화서로 5-1, (구월동)",37.4460679,126.6954071,27.60937039
402,미금약국,"인천광역시 부평구 부흥로 414, 103-1호 (부개동, 모아빌딩)",37.4973782,126.737929,27.56550324
1470,다복약국,"인천광역시 남동구 선수촌공원로23번길 6-29, 1층 104호 (구월동)",37.4425513,126.7094029,27.49059327
2733,참사랑약국,"인천광역시 미추홀구 인하로 276, (주안동)",37.4478746,126.6787405,27.42005818
485,삼성약국,"인천광역시 남동구 만수서로3번길 16, (만수동)",37.4599616,126.7268777,27.18159085
2316,태양약국,"인천광역시 미추홀구 구월로37번길 46, 1층 (주안동)",37.4595136,126.6941886,26.21707233
3092,한솔약국,"인천광역시 미추홀구 인하로 211, (주안동)",37.4487547,126.6714735,25.88271218
3102,행복약국,"인천광역시 미추홀구 한나루로 589, 102호 (도화동)",37.4586572,126.6718018,25.61827607
2895,화생당약국,"인천광역시 미추홀구 길파로 30, (주안동)",37.4683628,126.6798812,25.38662077
3327,맑은약국,"인천광역시 서구 명가골로 37, (석남동)",37.5132828,126.6732411,25.14681346
4996,만수루약국,"인천광역시 남동구 장승로 42-1, 1층 (만수동)",37.4451361,126.7373479,25.01247169
2459,아침6시약국,"인천광역시 미추홀구 인주대로 460, 1층 (주안동)",37.4506306,126.6878293,24.9451313
1295,성민약국,"인천광역시 부평구 주부토로 262, (갈산동)",37.5183371,126.7273546,24.93628994
3413,송도약국,"인천광역시 연수구 한나루로196번길 2, (옥련동)",37.4265887,126.6571716,24.85079052
891,손약국,"인천광역시 부평구 경원대로 1414, 삼미빌딩 1층 103호 (부평동)",37.4910161,126.7260914,24.47563933
2355,십자메디칼약국,"인천광역시 부평구 청중로 65, 1층 105호 (청천동)",37.5176906,126.7046521,24.45574407
2186,참조은약국,"인천광역시 남동구 문화서로4번길 4, (구월동)",37.4458172,126.6954827,24.35351008
3993,드림약국,"인천광역시 미추홀구 독배로 465, (숭의동)",37.4602669,126.6469809,24.29640005
1613,온누리이레약국,"인천광역시 남동구 경인로644번길 28-1, (간석동)",37.4667946,126.7096834,24.18615506
1615,코코약국,"인천광역시 계양구 계양대로 66, 1층 (작전동)",37.5297384,126.722989,23.58310059
2456,주안온누리약국,"인천광역시 미추홀구 인하로352번길 3, 1층 (주안동)",37.4479446,126.687485,23.16191715
1240,365부평프라자약국,"인천광역시 부평구 부평문화로 57, 1층 (부평동)",37.4941808,126.7225383,22.7973663
1527,간석진약국,"인천광역시 남동구 석산로169번길 18, 1층 2호 (간석동)",37.461377,126.7108791,22.51566589
4757,하늘약국,"인천광역시 중구 운남로 167, 허브빌딩 101,102호 (운남동)",37.4926109,126.5329514,22.43529386
1503,천지약국,"인천광역시 계양구 아나지로299번길 24, (작전동)",37.52774,126.725364,22.40357452
4044,봄약국,"인천광역시 미추홀구 독배로 498, 1층 (숭의동)",37.461895,126.643852,22.30293477
902,간석비타민약국,"인천광역시 남동구 호구포로 886, 101호 (간석동)",37.4614318,126.7204904,21.96449259
1170,경인온누리약국,"인천광역시 부평구 주부토로 114, (부평동)",37.5051799,126.7257787,21.46829143
1685,온누리인제약국,"인천광역시 남동구 남동대로 885, (간석동)",37.4614872,126.7080364,21.26239181
1140,척도약국,"인천광역시 남동구 구월로 235, 1층 (구월동)",37.4563923,126.7167158,21.2428837
3939,조은약국,"인천광역시 미추홀구 독배로 429, (용현동)",37.4577565,126.6491131,21.23297854
3171,용남시장약국,"인천광역시 미추홀구 인주대로266번길 17, (용현동)",37.4519525,126.6656813,21.21187541
3145,다나약국,"인천광역시 미추홀구 경인로 233, 1층 1호 (도화동)",37.4644062,126.6684686,20.7257613
2854,혜은약국,"인천광역시 미추홀구 인하로262번길 6, 1층 (주안동)",37.4479348,126.6771585,20.67972678
5035,성모제일약국,"인천광역시 미추홀구 경인로 486, (주안동)",37.4593134,126.693735,19.85803406
818,부평큰약국,"인천광역시 부평구 시장로 53, 1층 (부평동)",37.4953206,126.7272454,19.83495736
3523,명문당약국,"인천광역시 미추홀구 인주대로 191-1, (용현동)",37.455385,126.6583509,19.83115904
5087,으뜸약국,"인천광역시 중구 도원로7번길 12-1, (선화동)",37.465701,126.6359077,19.82352707
827,우리들약국,"인천광역시 남동구 호구포로 788, (구월동)",37.4526555,126.7193332,19.73484251
5014,부개하늘약국,"인천광역시 부평구 부일로 85, 1층 일부호 (부개동)",37.4889749,126.739536,19.55536322
1721,보배약국,"인천광역시 계양구 봉오대로 659, 1층 일부호 (작전동)",37.5309442,126.7221136,19.49250129
4150,신우약국,"인천광역시 동구 샛골로 153, (송림동)",37.4762935,126.6443542,19.25024553
3038,청사랑약국,"인천광역시 미추홀구 제일로 42, (도화동)",37.4586065,126.6747275,18.75529201
1585,햇살약국,"인천광역시 남동구 남동대로733번길 3, 1층 2호 (구월동)",37.4478288,126.7070668,18.72986548
3998,운현약국,"인천광역시 미추홀구 경인로34번길 4, (숭의동)",37.4636631,126.6469725,18.70912632
1723,작전메디칼약국,"인천광역시 계양구 계양대로 85, 1층 (작전동)",37.5313993,126.722212,18.52545106
3012,삼성약국,"인천광역시 미추홀구 석정로 379, 신동반점 1층 (주안동)",37.4672943,126.6776995,18.31198588
119,일신약국,"인천광역시 부평구 일신로14번길 10, (일신동)",37.4840123,126.7450325,18.17591644
1050,동서약국,"인천광역시 부평구 부흥로304번길 42, (부평동)",37.4965465,126.7254116,18.14948652
1481,나눔약국,"인천광역시 계양구 주부토로 463, 1층 (작전동)",37.5355668,126.7277899,17.98227749
4349,유동약국,"인천광역시 중구 서해대로494번길 2-1, (유동)",37.4697327,126.6369727,17.58550416
2622,종로사약국,"인천광역시 미추홀구 경인로 382-1, 1층 (주안동)",37.4581289,126.6825016,17.32380794
2623,종로사약국,"인천광역시 미추홀구 경인로 382-1, (주안동)",37.4581289,126.6825016,17.32380794
161,부개바른약국,"인천광역시 부평구 경인로1104번길 18, 1층 일부호 (부개동)",37.4849388,126.7420153,17.28195975
994,일호약국,"인천광역시 부평구 경원대로1403번길 4, (부평동)",37.4915635,126.7251337,17.19755871
899,신세계약국,"인천광역시 남동구 호구포로 872, 1층 (구월동)",37.4600359,126.7203063,17.07998774
1458,유성약국,"인천광역시 남동구 백범로 338, (간석동)",37.4648673,126.7131791,17.02841987
837,다정약국,"인천광역시 남동구 구월로 263, (구월동)",37.4560478,126.7198396,17.00269108
5088,은혜약국,"인천광역시 남동구 백범로 274, (간석동)",37.4618782,126.7192353,16.89409019
3375,열린약국,"인천광역시 서구 가정로 364, 1층 (가정동)",37.517243,126.6731657,16.88411077
4433,나을약국,"인천광역시 동구 화도진로44번길 12, 1층 (송현동)",37.4763171,126.634305,16.66491446
4377,솔빛약국,"인천광역시 동구 송림로 12, (금곡동)",37.4729875,126.636685,16.43414036
2129,수약국,"인천광역시 남동구 구월로 75-1, (간석동)",37.4572857,126.6989063,16.36541098
4292,주사랑약국,"인천광역시 미추홀구 토금남로 31-1, (용현동)",37.4517475,126.6360511,15.99835401
284,건강마을온누리약국,"인천광역시 남동구 인주대로 847, A동 1층 일부호 (만수동)",37.4487119,126.7315874,15.78880041
2955,우성약국,"인천광역시 미추홀구 석정로 389-5, (주안동)",37.4671846,126.6788063,15.69013292
3962,하동약국,"인천광역시 서구 승학로483번길 18-6, (검암동)",37.5647864,126.6718606,15.63043741
2730,건강제일약국,"인천광역시 미추홀구 미추홀대로698번길 6, 1층 (주안동)",37.4596432,126.6805881,15.51776219
1485,태강메디카약국,"인천광역시 계양구 주부토로 467, (작전동)",37.5358586,126.727796,15.48185347
2073,연수바른약국,"인천광역시 연수구 학나래로 12, 1층 (선학동)",37.4239447,126.696694,15.44213222
4170,대한약국,"인천광역시 동구 송림로 81, 1층 (송림동)",37.4758166,126.6437936,15.13104855
1427,원약국,"인천광역시 남동구 백범로 325-2, 1층 (간석동)",37.4639108,126.7137711,15.10767354
2332,믿음약국,"인천광역시 부평구 마장로 396-1, (청천동)",37.5135199,126.704206,14.48312459
5056,신세계약국,"인천광역시 중구 참외전로 134-1, (인현동, 신세계약국,거상인력)",37.474406,126.6319286,14.47273763
4229,천사약국,"인천광역시 미추홀구 낙섬중로38번길 2, 1층 (용현동)",37.4514546,126.6375552,14.25295496
1713,행복한약국,"인천광역시 남동구 경인로 770, (간석동)",37.478201,126.7107001,14.12572037
1826,인천시민약국,"인천광역시 계양구 계양대로 206, (계산동)",37.5423768,126.72304,14.11889811
2405,그린팜약국,"인천광역시 부평구 원적로300번길 4, (산곡동)",37.5043821,126.6994844,13.90254123
1263,단비약국,"인천광역시 부평구 부평대로64번길 1, (부평동)",37.4972346,126.7229375,13.79831374
540,길목약국,"인천광역시 부평구 길주남로101번길 4-20, (부개동)",37.5045174,126.7341635,13.76997746
2966,둥지온누리약국,"인천광역시 연수구 함박뫼로 26, (청학동)",37.4197808,126.6720183,13.41782089
1388,백세약국,"인천광역시 부평구 부평대로87번길 4, (부평동)",37.4994174,126.7216174,13.3012445
1111,나라약국,"인천광역시 계양구 계양산로 191, (임학동)",37.54767,126.7371586,13.28814849
4298,약손약국,"인천광역시 미추홀구 토금남로 29, 1층 (용현동)",37.4518902,126.6357749,13.23461666
4247,토지약국,"인천광역시 미추홀구 낙섬중로 35, (용현동)",37.4515213,126.6372594,13.13852668
3082,제일건강약국,"인천광역시 미추홀구 경인로 291, 1층 (도화동)",37.4610219,126.6735796,12.96903413
467,주공약국,"인천광역시 남동구 백범로 183, (만수동, 1층전부)",37.4581603,126.7280714,12.85658214
3982,동인당약국,"인천광역시 미추홀구 석정로 123, 1층 우측호 (숭의동)",37.4688449,126.6489137,12.49488135
1214,미래약국,"인천광역시 부평구 부평대로17번길 2, (부평동)",37.4931088,126.7227116,12.35021514
650,솔미약국,"인천광역시 부평구 장제로 178, (부평동)",37.5013838,126.7312025,11.94523667
2582,인영약국,"인천광역시 미추홀구 인하로 301-1, (주안동)",37.4481331,126.681767,11.17455041
4222,기성약국,"인천광역시 미추홀구 낙섬중로 51, (용현동)",37.4527201,126.6381712,10.56852068
4050,청십자약국,"인천광역시 동구 송림로 102, 1층 (송림동)",37.475966,126.6460186,9.791026365
4056,한솔약국,"인천광역시 동구 동산로 86, (송림동)",37.4749856,126.6456727,7.085271374
3661,은혜약국,"인천광역시 미추홀구 경인로 128, (숭의동)",37.4659999,126.6568131,6.389817906
3140,사랑약국,"인천광역시 미추홀구 석정로 306, 1층 106호 (도화동, 삼원상가)",37.4678248,126.6693482,0
3756,다나은 온누리 약국,"인천광역시 미추홀구 소성로 6, (용현동,홈플러스(인하점) 지하1층)",37.4471449,126.6508869,0
3754,연세드림약국,"인천광역시 서구 새오개로111번안길 32, 102호 (신현동)",37.5220772,126.6648356,0
3841,헬스원약국,"인천광역시 연수구 센트럴로 160, 140, 141호 (송도동, 파크게이트 )",37.3928401,126.6436371,0
3389,하늘약국,"인천광역시 서구 가정로 372, 1층 일부호 (가정동)",37.5181481,126.6732312,0
3701,송도중앙약국,"인천광역시 연수구 인천타워대로54번길 13, 1층 103호 (송도동, 해승메디피아)",37.3791794,126.6463562,0
3154,정명약국,"인천광역시 연수구 청학로15번길 4, (청학동)",37.4287134,126.6632924,0
3401,세란약국,"인천광역시 서구 가정로 388, KEB외환은행 1층 일부호 (가정동)",37.519455,126.6733803,0
3741,송도가로수약국,"인천광역시 연수구 해돋이로 168-2, 114,115호 (송도동)",37.3950206,126.6456509,0
3330,햇살온누리약국,"인천광역시 연수구 앵고개로104번길 4, 준빌딩 104호 (동춘동)",37.4123896,126.6570535,0
3344,미소약국,"인천광역시 서구 원당대로 841, (원당동, 골든벨프라자)",37.5941498,126.6950759,0
3364,한마음약국,"인천광역시 연수구 송도문화로28번길 28, 203동 208호 (송도동, 송도글로벌캠퍼스푸르지오)",37.3766923,126.6536904,0
3751,송도봄약국,"인천광역시 연수구 해돋이로 161, 세종프라자 105,106호 (송도동)",37.3945216,126.6454053,0
3748,맑은샘온누리약국,"인천광역시 연수구 하모니로177번길 49, 형지글로벌 패션복합센터 202호 (송도동)",37.3783946,126.644397,0
3332,푸른약국,"인천광역시 서구 심곡로194번길 1, (공촌동)",37.5502762,126.6823195,0
3142,용일약국,"인천광역시 미추홀구 인주대로 273, 1층 (주안동)",37.4526616,126.6669004,0
3832,가정온누리약국,"인천광역시 서구 청중로 486, 부일프라자 106호 (가정동)",37.5297217,126.6653351,0
3379,백화점온누리약국,"인천광역시 연수구 비류대로 208, (옥련동)",37.4274233,126.6576991,0
3334,탄탄약국,"인천광역시 서구 가정로308번길 2, 101호 (석남동)",37.5120998,126.6728953,0
3357,global연세약국,"인천광역시 연수구 송도문화로28번길 28, 204동 1층 119호 (송도동, 글로벌캠퍼스푸르지오)",37.3766923,126.6536904,0
3138,참약사 꿈약국,"인천광역시 연수구 송도과학로16번길 33-1, 송도 트리플스트리트 A동 지하2층 B203a03호 (송도동)",37.3809088,126.6594853,0
3391,루원참조은약국,"인천광역시 서구 가정로 406, A동 304호 (가정동, 루원지웰시티푸르지오)",37.5218008,126.6745964,0
3827,드림약국,"인천광역시 서구 승학로 498, 108호 (검암동, 서해프라자)",37.5651728,126.6749685,0
3148,효약국,"인천광역시 연수구 청학로 5, (청학동, 행복빌딩)",37.4275632,126.6632608,0
3384,푸른건강약국,"인천광역시 서구 가정로 370, (가정동)",37.5177816,126.6731901,0
3149,송도우리약국,"인천광역시 연수구 송도문화로84번길 24, 209호 (송도동, 송도에듀포레푸르지오)",37.3742871,126.6586552,0
3129,우리약국,"인천광역시 서구 서달로 159, 102호 (석남동)",37.5127963,126.6786843,0
3355,지웰2층약국,"인천광역시 서구 가정로 406, A동 224호 (가정동, 루원지웰시티푸르지오)",37.5218008,126.6745964,0
3337,그랜드약국,"인천광역시 서구 가정로 308, (석남동)",37.5123642,126.6728783,0
3394,한솔약국,"인천광역시 서구 가정로 382, (가정동, 새인천상가)",37.5189281,126.6733601,0
3126,메디팜약수약국,"인천광역시 서구 서달로123번길 3, (석남동)",37.5095677,126.6781251,0
3801,새로이약국,"인천광역시 연수구 인천타워대로132번길 34, 103호 (송도동)",37.386364,126.6439449,0
3813,송도메디칼약국,"인천광역시 연수구 독배로40번길 43, 3층 (옥련동)",37.4246225,126.6472633,0
3759,새오개약국,"인천광역시 서구 새오개로111번안길 31, 101호 (신현동)",37.5224277,126.6648538,0
3830,행복한약국,"인천광역시 서구 승학로 497, 검암프라자 109호 (검암동)",37.5655839,126.6749543,0
3398,구름약국,"인천광역시 미추홀구 숙골로87번길 5, 204동 2층 2-18호 (도화동, 더샵 인천스카이타워 2단지)",37.4692972,126.6634299,0
3400,미추홀약국,"인천광역시 미추홀구 숙골로87번길 5, 204동 2층 16호 (도화동, 더샵 인천스카이타워 2단지)",37.4692972,126.6634299,0
3790,송도타워약국,"인천광역시 연수구 컨벤시아대로 165, 포스코타워-송도 5층 일부호 (송도동)",37.3891409,126.6444427,0
3779,센트럴파크약국,"인천광역시 연수구 컨벤시아대로130번길 14, 1층 108,109호 (송도동)",37.3929706,126.644882,0
3776,동의당약국,"인천광역시 연수구 한진로 23, 1층 (옥련동)",37.4246654,126.6478566,0
3771,참사랑약국,"인천광역시 서구 검단로 836, 212,213호 (불로동, 월드아파트 중앙상가)",37.6174791,126.6925551,0
3768,서울약국,"인천광역시 서구 검단로 836, 217호 (불로동, 월드상가)",37.6174791,126.6925551,0
3820,가정미소약국,"인천광역시 서구 봉오재3로 42, 102호 (가정동)",37.5294806,126.6656884,0
3817,명문약국,"인천광역시 서구 봉오재3로 44, 101호 (가정동, 명문프라자)",37.5293069,126.6656791,0
3760,서울온누리약국,"인천광역시 연수구 해돋이로 168, 102호 (송도동, 혜인프라자)",37.3954335,126.6452057,0
3151,고일약국,"인천광역시 미추홀구 소성로 150, (학익동)",37.4423338,126.6650244,0
3440,사(4)층약국,"인천광역시 서구 가정로 375, 409호 일부, 410호 (신현동, 금강아미움)",37.5184697,126.6726303,0
3161,청수당약국,"인천광역시 미추홀구 석정로 300, (도화동)",37.4678799,126.6688096,0
3595,루원서울약국,"인천광역시 서구 가정로 437, 301동 204호 (가정동, 루원시티 SK Leaders' VIEW)",37.523467,126.6712038,0
3225,송도미소약국,"인천광역시 연수구 송도국제대로 157, 오네스타 1층 A103호 (송도동)",37.3809617,126.6566654,0
3219,희망약국,"인천광역시 서구 가정로 140, 103호 (가좌동)",37.4971508,126.6719801,0
3514,녹십자약국,"인천광역시 서구 서곶로 293, 1층 (심곡동)",37.5435977,126.6764782,0
3511,중앙약국,"인천광역시 연수구 신송로125번길 7, 4층 408호 (송도동, 이리옴프라자)",37.3949682,126.651567,0
3505,한사랑약국,"인천광역시 서구 서곶로 281, (심곡동)",37.5426091,126.6764465,0
3493,센타약국,"인천광역시 연수구 신송로 121, 406호 (송도동, 센터프라자)",37.3953836,126.6518979,0
3489,탑온누리약국,"인천광역시 연수구 첨단대로 40, 에스파이브시티 B106호 (송도동)",37.3700348,126.6503746,0
3604,그린약국,"인천광역시 서구 탁옥로 45, (심곡동)",37.544103,126.6746266,0
3320,새솔약국,"인천광역시 서구 가정로 280, 102호 (석남동)",37.5096673,126.6728633,0
3609,솔솔약국,"인천광역시 연수구 청량로 217, (옥련동)",37.4261152,126.6525415,0
3266,학익프라자약국,"인천광역시 미추홀구 매소홀로 355, (학익동)",37.441411,126.6620204,0
3617,백제당약국,"인천광역시 서구 연희로 12, 1층 (연희동)",37.5493558,126.6757723,0
3481,신도시약국,"인천광역시 연수구 해돋이로120번길 16, 106호 (송도동, 송도풍림아이원2단지아파트)",37.3937724,126.6521108,0
3270,더조은약국,"인천광역시 서구 원당대로 856, 마크포레스트 어반 B102호 (당하동)",37.593307,126.6965865,0
3620,루원시티약국,"인천광역시 서구 염곡로 468, 드림타워 106호 (가정동)",37.5264908,126.6697132,0
3473,송도센트럴약국,"인천광역시 연수구 송도국제대로 261, 114호 (송도동, 송도 더샵 센트럴시티)",37.3739468,126.6510373,0
3594,SK성모약국,"인천광역시 서구 가정로 437, 301동 B117호 (가정동, 루원시티 SK Leaders' VIEW)",37.523467,126.6712038,0
3592,새봄약국,"인천광역시 서구 탁옥로 49, 제스트프라자 404호 (심곡동)",37.5440929,126.6750758,0
3228,송도제일약국,"인천광역시 연수구 송도국제대로 157, 오네스타 1층 A-108~112호 (송도동)",37.3809617,126.6566654,0
3584,아이누리약국,"인천광역시 연수구 컨벤시아대로 81, B동 3층 301호 (송도동, 드림시티)",37.3949168,126.6501721,0
3258,조은약국,"인천광역시 서구 거북로 98, (석남동)",37.5029771,126.6726489,0
3550,송도건강온누리약국,"인천광역시 연수구 컨벤시아대로 69, 4층 408호 (송도동, 밀레니엄빌딩)",37.3957057,126.6509615,0
3552,송도플러스약국,"인천광역시 연수구 컨벤시아대로 69, 송도 밀레니엄 1층 137호 (송도동)",37.3957057,126.6509615,0
3259,거북시장약국,"인천광역시 서구 거북로 97, (석남동)",37.5032971,126.6727092,0
3530,동안약국,"인천광역시 서구 승학로 567, 101호 (검암동)",37.5667006,126.6826147,0
3247,미약국,"인천광역시 서구 고산후로95번길 20, 108호, 109호 (당하동, 힘찬프라자)",37.5926652,126.6967486,0
3559,성누가약국,"인천광역시 서구 탁옥로 55, SM스카이빌 (심곡동)",37.5441389,126.6758402,0
3262,원당우리약국,"인천광역시 서구 원당대로 859, 107호 (원당동, 원당메디칼프라자)",37.5939502,126.6970265,0
3561,미래약국,"인천광역시 미추홀구 인주대로 186, (용현동)",37.4552272,126.6575636,0
3527,뉴송도약국,"인천광역시 연수구 해돋이로 102, 1층 103호 (송도동, 명인프라자)",37.3914202,126.651061,0
3570,루원진약국,"인천광역시 서구 염곡로464번길 15, 106호 (가정동)",37.5263928,126.6711075,0
3241,메디플러스약국,"인천광역시 연수구 송도국제대로 165, 지하1층 (송도동, 홈플러스 송도점)",37.3802255,126.6563721,0
3233,루원봄약국,"인천광역시 서구 봉오대로 255, 104,105호 (가정동)",37.5251182,126.6779803,0
3524,이삭약국,"인천광역시 서구 율도로 62-1, 1층 (석남동)",37.5134156,126.6690321,0
3577,새연희약국,"인천광역시 서구 서곶로 355-1, (연희동)",37.5494542,126.6767428,0
3209,원당연세약국,"인천광역시 서구 원당대로 866, 202호 (당하동, 세브란스빌딩)",37.5932335,126.697638,0
3275,정온누리약국,"인천광역시 서구 건지로 264, 112, 113호 (가좌동)",37.498915,126.6715059,0
3627,솔빛약국,"인천광역시 연수구 신송로 153, 더 마란츠타워 111,112호 (송도동)",37.3971701,126.6491502,0
3652,송도골드약국,"인천광역시 연수구 신송로 157-9, 105호 (송도동)",37.3969601,126.648703,0
3251,해미약국,"인천광역시 서구 가정로 123, 명성프라자 107호 (가좌동)",37.4957249,126.6712914,0
3655,파랑새약국,"인천광역시 미추홀구 장천로112번길 3, (숭의동)",37.4628862,126.6565617,0
3658,삼정약국,"인천광역시 미추홀구 경인로 128-1, (숭의동)",37.466,126.6568855,0
3672,쾌차약국,"인천광역시 연수구 신송로 161, 송도 하이츠 115호 (송도동)",37.3975947,126.6484388,0
3439,비타민약국,"인천광역시 서구 가정로 375, 310호,311호 (신현동, 금강아미움)",37.5184697,126.6726303,0
3164,부영약국,"인천광역시 미추홀구 한나루로 411, (학익동)",37.4443962,126.6650469,0
3162,민중약국,"인천광역시 미추홀구 한나루로 400, (학익동)",37.4435149,126.6649652,0
3676,플러스약국,"인천광역시 연수구 신송로 166, 플러스원프라자 107호 (송도동)",37.3984477,126.6484574,0
3678,송도신세계약국,"인천광역시 연수구 해돋이로 107, H동 8호 (송도동, 더？퍼스트월드)",37.3911869,126.6478318,0
3312,행복한약국,"인천광역시 서구 가정로 213, (석남동)",37.5038286,126.6718844,0
3430,차약국,"인천광역시 서구 가정로 369, 1층 일부 (신현동)",37.5179656,126.6725797,0
3690,연희우리약국,"인천광역시 서구 심곡로 24, (심곡동)",37.5421627,126.6723071,0
3692,송도이레약국,"인천광역시 연수구 해돋이로172번길 42, 103호 (송도동)",37.3980293,126.6480176,0
3696,용현독일약국,"인천광역시 미추홀구 독정이로 7, (용현동)",37.4567687,126.654733,0
3418,천사약국,"인천광역시 서구 가정로 363, (신현동)",37.5174084,126.6726929,0
3445,오렌지약국,"인천광역시 서구 가정로 375, 104호 (신현동, 금강아미움상가)",37.5184697,126.6726303,0
3649,복지온누리약국,"인천광역시 서구 탁옥로 37, 1층 107호 (심곡동, 우리타워)",37.5441515,126.6736654,0
3635,가온약국,"인천광역시 서구 봉오재3로 90, 한일골드타워 (가정동)",37.527215,126.6697544,0
3173,길정약국,"인천광역시 미추홀구 인주대로 261, (주안동)",37.4530363,126.6658046,0
3203,다사랑약국,"인천광역시 미추홀구 한나루로 379, (학익동)",37.4419262,126.6630383,0
3471,햇님약국,"인천광역시 미추홀구 숙골로 114, 우리타워 103호 (도화동)",37.4721127,126.6620373,0
3464,다인약국,"인천광역시 서구 가정로 451, 벨라미센텀시티 1동 1층 160호,161호 (가정동)",37.5255371,126.6729765,0
3282,청우약국,"인천광역시 서구 가정로 202, (석남동)",37.5027714,126.6722908,0
3287,옵티마정다운약국,"인천광역시 서구 가정로 204, (석남동)",37.5029848,126.6722819,0
3459,또바기약국,"인천광역시 미추홀구 숙골로87번길 14, 101호 (도화동)",37.4699179,126.6619945,0
3292,디에이치(DH)메디컬약국,"인천광역시 미추홀구 석정로 271, 1층 (도화동)",37.4685802,126.6656995,0
3195,명성약국,"인천광역시 미추홀구 소성로 136, 1층 102호 (학익동)",37.4429141,126.6637029,0
3192,성우약국,"인천광역시 미추홀구 한나루로 389, 1층 (학익동)",37.4426794,126.6636979,0
3301,정성약국,"인천광역시 서구 가정로 201-1, 1층 (석남동, 두일빌딩)",37.5029338,126.671879,0
3305,오거리약국,"인천광역시 미추홀구 숙골로 57, (도화동)",37.467851,126.6652522,0
3306,가좌마트약국,"인천광역시 서구 가정로151번길 11, 2층 (가좌동)",37.4976706,126.6707496,0
3182,루원온누리약국,"인천광역시 서구 서곶로 45, B068호 (가정동, 루원 린스트라우스 더 린시티)",37.5204514,126.6782791,0
3177,온누리이화약국,"인천광역시 서구 거북로 115, (석남동)",37.5032101,126.6746301,0
3647,백제약국,"인천광역시 미추홀구 수봉로 31, 1층 (숭의동)",37.4633156,126.6567152,0
3371,굿모닝약국,"인천광역시 서구 가정로 364-1, (가정동)",37.5173935,126.6731911,0
6,천사약국,"인천광역시 남동구 서창남순환로 2, 106호 (서창동)",37.4244603,126.7503346,0
3845,현대온누리약국,"인천광역시 연수구 독배로40번길 29, (옥련동)",37.4244979,126.6465824,0
4841,강화약국,"인천광역시 강화군 강화읍 중앙로 43, (강화읍)",37.7397958,126.4904043,0
4775,스카이약국,"인천광역시 중구 흰바위로 51, 롯데마트 3층 (운서동)",37.4927087,126.4912091,0
4781,서울메디칼약국,"인천광역시 중구 신도시남로 137, 화평빌딩 (운서동)",37.4936705,126.4900763,0
4786,하늘그린약국,"인천광역시 중구 신도시남로 137, 1층 (운서동)",37.4936705,126.4900763,0
4791,해오름약국,"인천광역시 중구 흰바위로 41, 2층 (운서동)",37.492743,126.4894823,0
4794,영종태평양약국,"인천광역시 중구 흰바위로 31, 1층 (운서동)",37.4927747,126.4884614,0
4803,연세약국,"인천광역시 중구 공항로424번길 66, 지하1층 117호 (운서동, LG인천공항에클라트)",37.4387932,126.4621118,0
4809,전등약국,"인천광역시 강화군 길상면 온수길 23, (길상면)",37.6390725,126.4918562,0
4814,유신약국,"인천광역시 강화군 길상면 온수길36번길 2, (길상면)",37.6395604,126.4909558,0
4819,W-store 스타약국,"인천광역시 중구 공항로 272, (운서동, 인천국제공항여객터미널 3층)",37.4583507,126.4276993,0
4820,밸런스약국,"인천광역시 중구 공항로 272, 인천공항제2여객터미널 지하1층 (운서동)",37.4583507,126.4276993,0
4821,옵티마프라자약국,"인천광역시 중구 공항로 272, (운서동, 인천국제공항여객터미널 3층)",37.4583507,126.4276993,0
4834,큰샘온누리약국,"인천광역시 강화군 강화읍 중앙로 9, 9",37.742143,126.4920223,0
4838,신세계약국,"인천광역시 강화군 강화읍 중앙로 23, (강화읍)",37.741058,126.4910945,0
4844,이화약국,"인천광역시 강화군 강화읍 중앙로 27, (강화읍)",37.7406592,126.4907415,0
4770,운서마루약국,"인천광역시 중구 영종대로 184, 영종예스타워복합상영관 115호 (운서동)",37.4922651,126.4987797,0
4849,메디팜 조은약국,"인천광역시 강화군 강화읍 중앙로 45, 정우빌딩",37.7393709,126.4896238,0
4859,강화종로약국,"인천광역시 강화군 강화읍 강화대로 387, 이레빌딩",37.7449927,126.4874136,0
4869,하하약국,"인천광역시 강화군 강화읍 강화대로 395, (준프라자 1층 103호 하하약국)",37.7453988,126.4868404,0
4870,e-믿음약국,"인천광역시 강화군 강화읍 강화대로 402, (강화읍)",37.74614,126.4868335,0
4873,서울약국,"인천광역시 강화군 강화읍 강화대로404번길 4, 서울약국",37.7463015,126.4867931,0
4881,재경약국,"인천광역시 강화군 강화읍 강화대로 412, (강화읍)",37.7467221,126.4859352,0
4885,새봄약국,"인천광역시 강화군 강화읍 동문안길 9-1, 청원빌딩",37.7473169,126.4860449,0
4951,1층바로약국,"인천광역시 미추홀구 경인로 372, 포레나 미추홀 201동 1017호 (주안동, 포레나 미추홀)",37.4573949,126.6811634,0
4954,365아라약국,"인천광역시 서구 이음5로 30, 연세프라자9 106호 (원당동)",37.5938019,126.7109705,0
4955,365햇살약국,"인천광역시 계양구 경명대로 1115, 인평프라자 106.107호 (계산동)",37.5434877,126.73095,0
4956,건강백세약국,"인천광역시 연수구 학나래로6번길 6, (선학동)",37.4235756,126.6968499,0
4957,건강희망약국,"인천광역시 서구 완정로 153, 이레메디칼센타 101호 (왕길동)",37.601364,126.6587545,0
4958,검단365약국,"인천광역시 서구 완정로178번길 1, 검단빌딩 102호 (마전동)",37.6027395,126.656733,0
4773,보듬약국,"인천광역시 중구 영종대로 118, 뉴에어포트오피스텔 102호 (운서동)",37.4948393,126.4922432,0
4761,라라약국,"인천광역시 중구 흰바위로 258, 센타프라자 113호 (운남동)",37.4784504,126.503879,0
4589,수린온누리약국,"인천광역시 서구 크리스탈로102번길 8-12, 수린빌딩 102,103호 (청라동)",37.5333439,126.6378536,0
4666,청라바른약국,"인천광역시 서구 청라한내로161번길 3-5, 102호 (청라동)",37.5391624,126.6278765,0
4602,산들약국,"인천광역시 서구 검단로 474, 102호 (왕길동, 뷰비스타운)",37.6016277,126.6570894,0
4606,호수약국,"인천광역시 서구 크리스탈로 78, 105호 (경서동, 엘림존)",37.5320528,126.6369075,0
4608,화도진약국,"인천광역시 동구 화도진로 137, (만석동)",37.4829554,126.6266434,0
4609,검단미래안약국,"인천광역시 서구 검단로 469, 101호 (왕길동)",37.6019222,126.6565495,0
4615,참조은약국,"인천광역시 서구 마전로5번길 22-1, 101호 (마전동)",37.6135777,126.6603682,0
4620,보성메디컬약국,"인천광역시 서구 완정로 179, 102호,103호 (왕길동, 제이원검단메디컬프라자)",37.6022682,126.6565217,0
4630,그린온누리약국,"인천광역시 서구 완정로 187, 103호 (왕길동, 마전메디칼센타)",37.6025377,126.6556276,0
4631,마전메디칼약국,"인천광역시 서구 완정로 187, (왕길동)",37.6025377,126.6556276,0
4632,메디팜우리들약국,"인천광역시 서구 완정로 187, 마전메디칼센타 101호 (왕길동)",37.6025377,126.6556276,0
4652,태평양약국,"인천광역시 서구 푸른로 3, 104호 (경서동)",37.5253162,126.6297735,0
4655,3층 조은약국,"인천광역시 서구 청라한내로72번길 23, (청라동)",37.5320392,126.6302033,0
4658,봄날약국,"인천광역시 서구 청라한내로100번길 24, 쓰리엠파크2 109호 (청라동)",37.533825,126.6302158,0
4661,재영약국,"인천광역시 서구 청라한내로 90, 114~115호 (청라동)",37.5333719,126.6279292,0
4669,행복온누리약국,"인천광역시 서구 솔빛로 24, 101, 102호 (청라동)",37.5236926,126.6240499,0
4756,서울행복약국,"인천광역시 중구 운남로 169, 1층 104호 (운남동)",37.4928104,126.5329894,0
4673,열린온누리약국,"인천광역시 서구 단봉로 97-7, 108호 (오류동)",37.5965935,126.6402168,0
4676,하나약국,"인천광역시 서구 단봉로 107, 성우프라자 102호 (왕길동)",37.5973526,126.6396738,0
4679,유한온누리약국,"인천광역시 중구 연안부두로33번길 36, 1층 4, 17, 24호 (항동7가)",37.4535905,126.605802,0
4682,라이프약국,"인천광역시 중구 축항대로86번길 38, (항동7가)",37.4535871,126.6047018,0
4684,스마트약국,"인천광역시 중구 축항대로86번길 38, (항동7가)",37.4535871,126.6047018,0
4695,영종올리브약국,"인천광역시 중구 하늘별빛로65번길 7-9, 스카이타워 117호 (중산동)",37.4884979,126.5646474,0
4700,새봄약국,"인천광역시 중구 하늘별빛로 71, 타임프라자 104호 (중산동)",37.4895347,126.5631964,0
4708,하늘바다약국,"인천광역시 중구 하늘별빛로65번길 8-11, 메이채프라자 102호 (중산동)",37.489476,126.5624567,0
4714,썬약국,"인천광역시 중구 하늘중앙로195번길 14, 이은스퀘어 125호 (중산동)",37.4893615,126.5607803,0
4719,영종제일태평양약국,"인천광역시 중구 하늘중앙로 193, 조양타워 108,109호 (중산동)",37.4903958,126.5606428,0
4730,하늘중앙로약국,"인천광역시 중구 하늘중앙로225번길 11, 107호 (중산동)",37.487847,126.5592315,0
4731,봄온누리약국,"인천광역시 중구 자연대로 47, 대지스타타워2 1층 111호 (중산동)",37.4887341,126.5589981,0
4743,영종길온누리약국,"인천광역시 중구 하늘달빛로 94, 113호 (중산동)",37.4872993,126.5574799,0
4959,검단보령약국,"인천광역시 서구 원당대로 1039, 태경타워 105,106호 (원당동)",37.5938086,126.7163483,0
4961,검단센트럴약국,"인천광역시 서구 이음3로 149, 위너스프라자 104호 (당하동)",37.5888993,126.7084318,0
4962,검단종로약국,"인천광역시 서구 이음5로 60, JS프라자 117, 118호 (원당동)",37.5943017,126.714436,0
5089,을지약국,"인천광역시 미추홀구 인하로 121, (용현동)",37.4500276,126.6616543,0
5054,스마일약국,"인천광역시 부평구 길주남로 158, 103호 (부개동)",37.5035857,126.7394035,0
5059,아이사랑약국,"인천광역시 부평구 동수천로 112, (부개동)",37.4954015,126.7370546,0
5062,양지온누리약국,"인천광역시 남동구 에코중앙로156번길 5-19, (논현동)",37.3918905,126.7266082,0
5063,엄마손약국,"인천광역시 연수구 신송로 154, 더 제니스 1층 115호 (송도동)",37.3977312,126.6497302,0
5066,연세스마트약국,"인천광역시 계양구 마장로 549, 영진빌딩 106호 (효성동)",37.5272809,126.7049785,0
5067,연세약국,"인천광역시 서구 승학로 577, 111호 (검암동, 장은프라자)",37.567428,126.6832754,0
5072,연수푸른약국,"인천광역시 연수구 용담로 115, 305호 (연수동, 파크타워)",37.4151256,126.677832,0
5074,영종우리들약국,"인천광역시 중구 영종대로 100, 1층 (운서동)",37.494896,126.4900699,0
5077,온누리명성약국,"인천광역시 남동구 만수로 43, (만수동, 1층일부)",37.4603252,126.7331894,0
5078,온새미로약국,"인천광역시 부평구 부평대로 21, 금남빌딩 102호 (부평동)",37.493266,126.7223099,0
5080,우리정문약국,"인천광역시 연수구 원인재로 286, 대림아파트 상가동 110호 (연수동)",37.419047,126.6926758,0
5081,우주약국,"인천광역시 남동구 용천로 68, (주)발해인터내셔날 1층 일부(101)호 (구월동)",37.455648,126.7149404,0
5083,운서온누리약국,"인천광역시 중구 영종대로 106, 104호 (운서동)",37.4948685,126.4909133,0
5090,을지약국,"인천광역시 부평구 부평대로 132, (부평동, 헤리움노블레스 101호)",37.5032506,126.7220722,0
4963,검단참사랑약국,"인천광역시 서구 이음대로 388, ABM타워 112,113호 (원당동)",37.5930779,126.7127038,0
5095,인천아라약국,"인천광역시 서구 서로3로 104, 신화프라자 102호 (당하동)",37.5888349,126.7076833,0
5096,임학약국,"인천광역시 계양구 장제로 871, 셀파마빌딩 1층 (임학동)",37.5449614,126.7381522,0
5098,장기비타민약국,"인천광역시 계양구 황어로 120, 1층 일부호 (장기동)",37.5792978,126.7341732,0
5102,주안열린약국,"인천광역시 미추홀구 미추홀대로 610, 110,111호 (주안동)",37.4517913,126.6800704,0
5103,착한약국,"인천광역시 서구 완정로 180, 1층 (마전동, 동화빌딩)",37.60283,126.6564707,0
5107,크리스탈약국,"인천광역시 연수구 랜드마크로360번길 40, 304동 108호 (송도동, 송도자이크리스탈오션)",37.3866584,126.6116092,0
5112,하나온누리약국,"인천광역시 서구 가정로 309, 1층 (석남동)",37.5124136,126.6724229,0
5113,하늘365약국,"인천광역시 중구 하늘달빛로 84, 파크원 105호 (중산동)",37.4867621,126.5581458,0
5116,한나약국,"인천광역시 부평구 동수로 168-1, (부개동, 승민빌딩)",37.4856902,126.7373308,0
5117,한마음약국,"인천광역시 부평구 길주남로 159, 101호 (부개동, 새롬프라자14차)",37.5039884,126.7396483,0
5118,해솔약국,"인천광역시 부평구 부평대로167번길 42, 동아타운 1층 111호 (청천동)",37.5063731,126.718346,0
5120,행운약국,"인천광역시 부평구 경원대로 1409, 반석빌딩 1층 일부호 (부평동)",37.4915631,126.7256979,0
5121,현대약국,"인천광역시 부평구 마장로 334, 108호 (산곡동)",37.5078162,126.7038591,0
5052,송림이화약국,"인천광역시 동구 송림로 91, (송림동)",37.4762787,126.6449902,0
5050,송도온누리약국,"인천광역시 연수구 컨벤시아대로230번길 54, A136~137호 (송도동)",37.3889752,126.6340778,0
5049,송도시온약국,"인천광역시 연수구 해돋이로 165, 차오름 프라자 109호 (송도동)",37.3947527,126.6450834,0
5048,송도스카이약국,"인천광역시 연수구 인천타워대로 365, 301동 304호 (송도동, 힐스테이트 송도 더스카이)",37.4020553,126.6282699,0
4967,고래약국,"인천광역시 부평구 마장로324번길 8-19, 103호 (산곡동)",37.5059208,126.7040185,0
4968,고래온누리약국,"인천광역시 연수구 해돋이로152번길 9, 102,103호 (송도동)",37.3949908,126.6471044,0
4970,구월솔약국,"인천광역시 남동구 구월남로 174, 그랜드프라자 1층 114호 (구월동)",37.4528059,126.7090761,0
4972,나눔온누리약국,"인천광역시 계양구 동양로 101, 104호 (동양동, 명일프라자)",37.5590162,126.7561503,0
4974,남동온누리약국,"인천광역시 남동구 장승남로33번길 9, 대동아파트상가 110동 1층 107,108호 (만수동)",37.4437617,126.7357689,0
4976,논현센타약국,"인천광역시 남동구 논고개로123번길 17, 116,117호 (논현동, 아이플렉스)",37.4016809,126.7230659,0
4977,논현스타약국,"인천광역시 남동구 논고개로 93, 보미리즌텔 110호 (논현동)",37.3995195,126.7247976,0
4978,늘푸른약국,"인천광역시 남동구 석정로 571, 102호 (간석동, 정은아파트)",37.4670253,126.6987007,0
4980,다정약국,"인천광역시 연수구 독배로40번길 47, 제일빌딩 1층 105호 (옥련동)",37.424622,126.6475266,0
4981,대명약국,"인천광역시 서구 청라라임로 71, 111호 (연희동, 진영메디피아)",37.5339351,126.6529254,0
4988,동아메디칼약국,"인천광역시 서구 원적로 85, 우신프라자 309호 (가좌동)",37.4945665,126.6814273,0
4989,동암센트럴약국,"인천광역시 부평구 열우물로 90, 상가F동 1층 120호 (십정동, 더샵부평센트럴시티)",37.4770645,126.6979629,0
4998,메디컬그린약국,"인천광역시 미추홀구 남주길 150, 근린생활시설-2동 119호 (주안동, 힐스테이트 푸르지오 주안)",37.4524809,126.6752836,0
4999,문화약국,"인천광역시 부평구 부평대로 9, 문화드림빌 101,102호 (부평동)",37.492107,126.7226033,0
5004,바른약국,"인천광역시 서구 봉오재3로 40, 104호 (가정동)",37.5297026,126.6656787,0
5007,백세약국,"인천광역시 미추홀구 경인로 429, 1층 (주안동)",37.4582778,126.6878997,0
5009,보리약국,"인천광역시 부평구 마장로 86, 1층 일부호 (십정동)",37.4864203,126.7081162,0
5010,봄빛약국,"인천광역시 서구 이음1로 377, 검단 눈담봄 101 1층 101호 (원당동)",37.5941769,126.7171151,0
5015,부자약국,"인천광역시 부평구 원적로 392, 백마타운 1층 105호 (산곡동)",37.5036986,126.7099922,0
5016,부평 해약국,"인천광역시 부평구 산청로 97, 단지내상가 4동 1층 403,404호 (청천동, e편한세상부평그랑힐스)",37.5171266,126.7004808,0
5019,사랑인약국,"인천광역시 계양구 양지로 40, 1층 (동양동)",37.5621329,126.7554545,0
5032,서창제일태평양약국,"인천광역시 남동구 서창남로 81, 투엠프라자 1층 112,113호 (서창동)",37.4262867,126.7480493,0
5039,성심메디팜약국,"인천광역시 서구 원적로 100, (가좌동)",37.4950219,126.6828315,0
5042,세종약국,"인천광역시 서구 청라루비로 81, 108호 (청라동)",37.5324661,126.6401516,0
5043,소원약국,"인천광역시 부평구 경원대로 1355, (부평동)",37.4914035,126.7194687,0
5044,송도 고운맘약국,"인천광역시 연수구 테크노파크로111번길 4, 드 메티스 빌딩 103,104호 (송도동)",37.3860347,126.6442443,0
5045,송도더푸른약국,"인천광역시 연수구 해돋이로151번길 4, 103호 (송도동)",37.3940227,126.6460012,0
4591,메디피아약국,"인천광역시 서구 완정로 172, 109호 (마전동)",37.6026027,126.6574368,0
4582,백제약국,"인천광역시 서구 검단로 480, (왕길동, 검단리치웰프라자)",37.6017893,126.6576084,0
3849,메디칼정성약국,"인천광역시 미추홀구 독배로 309, 노블레스타워 108호,109호 (용현동)",37.4478362,126.6493911,0
4145,365열린온누리약국,"인천광역시 미추홀구 낙섬중로 105, 유원빌딩 1층 101호 (용현동)",37.4567785,126.6412829,0
4039,비타민약국,"인천광역시 미추홀구 인주대로 51, 더스테이프라임월드 108호 (숭의동)",37.4592188,126.6439461,0
4052,채움약국,"인천광역시 연수구 인천타워대로197번길 16, 리치센트럴 240호 (송도동)",37.3889449,126.6353639,0
4059,올리브약국,"인천광역시 서구 원당대로 663, 한종프라자 103호 (마전동)",37.593947,126.67488,0
4070,퍼스트약국,"인천광역시 연수구 컨벤시아대로230번길 42, 송도아라플라자 102-1호 (송도동)",37.3880856,126.6349147,0
4080,프라자약국,"인천광역시 서구 원당대로 660, 1층 101-1호 (당하동)",37.5932846,126.6742967,0
4082,보명약국,"인천광역시 동구 송림로 97, 1층 (송림동)",37.4763306,126.6454593,0
4094,종로약국,"인천광역시 동구 송림로 96, 1층 (송림동, 송림메디칼)",37.4757774,126.6453406,0
4101,인천약국,"인천광역시 동구 샛골로 212, (송림동)",37.4815574,126.6461076,0
4111,함께약국,"인천광역시 서구 서곶로 823, 1층 (당하동)",37.5906836,126.6729379,0
4112,서약국,"인천광역시 동구 샛골로 159-5, (송림동)",37.4766372,126.6445667,0
4123,청라온누리약국,"인천광역시 서구 청라에메랄드로102번길 8, 108호 (청라동, 우성메디피아)",37.5339413,126.6568104,0
4137,온누리중앙프라자약국,"인천광역시 서구 서곶로 837, (당하동)",37.5920754,126.672989,0
4142,숭의로터리약국,"인천광역시 미추홀구 석정로 21, 103호 일부, 104호 (숭의동)",37.461737,126.6420538,0
4149,희망약국,"인천광역시 동구 송림로 84, 1층 (송림동)",37.4755401,126.6442339,0
4031,열린약국,"인천광역시 동구 송림로 113, 105호 (송림동, 송영빌딩)",37.476894,126.6471854,0
4154,유원소망약국,"인천광역시 미추홀구 낙섬중로 101, (용현동)",37.4566042,126.6411477,0
4156,검단튼튼약국,"인천광역시 서구 청마로19번길 20, 103호 (당하동)",37.5920804,126.6726479,0
4159,메디팜큰사랑약국,"인천광역시 미추홀구 아암대로29번길 86, (용현동)",37.4563255,126.6409259,0
4165,청라큰사랑약국,"인천광역시 서구 청라에메랄드로 79, B12, B13호 (청라동)",37.5323373,126.6556909,0
4167,동구약국,"인천광역시 동구 송림로 80, 송림센트럴타워 1층 102호 (송림동)",37.47532,126.6437519,0
4176,타워온누리약국,"인천광역시 연수구 센트럴로 263, 송도국제업무단지 C8-2블럭 업무복합시설 3층 (송도동)",37.3981453,126.6339398,0
4183,조은약국,"인천광역시 동구 송림로 76, 1층 102호 (송림동)",37.4751151,126.6433207,0
4188,정다운약국,"인천광역시 미추홀구 인중로 13, 햇살병원 1층 좌측호 (숭의동)",37.4624885,126.641038,0
4192,지우약국,"인천광역시 미추홀구 토금남로 65, 1층 (용현동, 용현프라자 (106호))",37.450257,126.6391652,0
4196,한사랑약국,"인천광역시 동구 송림로 73-1, 1층 103호 (송림동)",37.4755898,126.6429412,0
3117,송도바이오약국,"인천광역시 연수구 송도바이오대로 300, 삼성바이오로직스 바이오플라자동 3층 일부호 (송도동)",37.3683817,126.6602563,0
4206,새희망약국,"인천광역시 미추홀구 낙섬중로 54, (용현동)",37.4527943,126.6385623,0
4210,올리브온누리약국,"인천광역시 미추홀구 아암대로29번길 48, (용현동, 백운프라자)",37.4570939,126.6390737,0
4033,도원약국,"인천광역시 동구 송미로 7, 1층 (송림동)",37.4809471,126.6476668,0
4027,검로푸 한들약국,"인천광역시 서구 한들로 74, 한들타워1 105호 (백석동)",37.5766742,126.6709777,0
4580,레몬약국,"인천광역시 서구 검단로 480, 검단리치웰프라자 115호 (왕길동)",37.6017893,126.6576084,0
3932,미래팜약국,"인천광역시 연수구 독배로 42, (옥련동, 해창빌딩)",37.4245086,126.6449188,0
3868,중앙메디칼약국,"인천광역시 미추홀구 독배로 311, 1층 110호 (용현동, 비젼프라자)",37.4481895,126.6492534,0
3871,늘건강온누리약국,"인천광역시 서구 승학로 491, 105호 (검암동)",37.5654797,126.6740507,0
3875,한결약국,"인천광역시 미추홀구 독정이로 79, 미지빌딩 102호 (숭의동)",37.462661,126.6512469,0
3878,든든약국,"인천광역시 연수구 독배로40번길 21, 유한빌딩 1층 102호 (옥련동)",37.424481,126.6460395,0
3880,연세건강약국,"인천광역시 미추홀구 독배로 408-1, 101호 (용현동)",37.4558194,126.6501428,0
3886,별온누리약국,"인천광역시 연수구 하모니로 158, 송도타임스페이스 A-110,111,112호 (송도동)",37.3832893,126.6422608,0
3896,타임365약국,"인천광역시 연수구 하모니로 158, 송도타임스페이스 A-116,117,118호 (송도동)",37.3832893,126.6422608,0
3902,용현우리약국,"인천광역시 미추홀구 독배로 420-1, 102호 (용현동)",37.4572197,126.6500125,0
3903,건강나라약국,"인천광역시 연수구 독배로40번길 11, 효명프라자 107,108호 (옥련동)",37.42453,126.6456745,0
3908,보룡약국,"인천광역시 연수구 독배로40번길 11, 효명프라자 104,111호 (옥련동)",37.42453,126.6456745,0
3913,성광코끼리약국,"인천광역시 미추홀구 독배로 422, 1층 (용현동)",37.4573802,126.6498418,0
3917,도담약국,"인천광역시 미추홀구 독배로 399, 영광프라자 109호 (용현동)",37.4553838,126.6491269,0
3919,S메디칼약국,"인천광역시 연수구 하모니로178번길 6, 121,122,123호 (송도동)",37.3823145,126.6413836,0
3946,수약국,"인천광역시 미추홀구 독배로317번길 23, 1층 103호 (용현동, 해성프라자)",37.4479153,126.6474574,0
4023,당하백화점약국,"인천광역시 서구 청마로167번길 8, (당하동, 강남프라자빌딩 106호)",37.5925635,126.6759332,0
3954,참다온약국,"인천광역시 연수구 하모니로178번길 22, 115,115-1,116호 (송도동)",37.3830722,126.6408363,0
3958,한솔프라자약국,"인천광역시 연수구 독배로 41, (옥련동)",37.4244291,126.6443699,0
3967,인하스카이뷰약국,"인천광역시 미추홀구 독배로317번길 29, 컬러프라자 101호 (용현동)",37.4477848,126.6468506,0
3970,검단마트약국,"인천광역시 서구 서곶로 754, (당하동)",37.5857437,126.6772089,0
3973,도담약국,"인천광역시 연수구 센트럴로 194, C동 119호 (송도동, 더샵 센트럴파크2)",37.3951272,126.640408,0
3978,성심약국,"인천광역시 서구 검단로768번1길 4, 1층 (불로동, 세인빌딩)",37.6132719,126.686013,0
3984,열린솔약국,"인천광역시 서구 검단로768번길 2, 105호 (불로동, 불로메디컬)",37.6135305,126.6856139,0
3992,송도이음약국,"인천광역시 연수구 아트센터대로 87, 커낼워크D4 WINTER 402동 152호 (송도동)",37.4023784,126.6401511,0
3995,연세송약국,"인천광역시 서구 한중1로 14, 센트럴빌딩 107호 (백석동)",37.5781605,126.673765,0
4004,당하메디칼약국,"인천광역시 서구 청마로 163, (당하동)",37.5919924,126.6765956,0
4013,도움약국,"인천광역시 미추홀구 낙섬중로 138, 미추홀프라자 101호 (용현동)",37.4582979,126.6447404,0
4019,센트럴원약국,"인천광역시 연수구 센트럴로 232, E동 172호 (송도동, 더샵센트럴파크1)",37.3969322,126.6375938,0
4021,셀메드수약국,"인천광역시 연수구 센트럴로 232, 219호 (송도동, 더샵센트럴파크1)",37.3969322,126.6375938,0
4217,열린연세약국,"인천광역시 미추홀구 토금남로 53, (용현동, 한양프라자 105호)",37.4508232,126.6381063,0
4231,연세메디칼약국,"인천광역시 미추홀구 토금중로40번길 11, (용현동)",37.4520249,126.6375972,0
4235,365열린약국,"인천광역시 서구 청라라임로 51, 105호 (청라동, 청라 에일린의뜰)",37.5321316,126.6529239,0
4494,보원약국,"인천광역시 중구 우현로 86, (인현동)",37.4744126,126.6307832,0
4421,이야기약국,"인천광역시 서구 청라커낼로 252, (청라동, 청라 롯데캐슬)",37.5309927,126.6462981,0
4428,백제약국,"인천광역시 동구 화수로 18, 동부센트레빌 상가 103호 (송현동)",37.4812389,126.6356202,0
4431,송현제일약국,"인천광역시 동구 송현로 25, 동인천역코아루시티 106호 (송현동)",37.4787047,126.634996,0
4434,경서메디칼약국,"인천광역시 서구 도요지로 22, 103호 (경서동, 대영프라자)",37.5588661,126.6526595,0
4438,두리약국,"인천광역시 서구 청라커낼로260번길 11, 진성프라자 105호 일부, 106호 (청라동)",37.532087,126.6457125,0
4445,중앙약국,"인천광역시 동구 화도진로 35, (송현동)",37.4757507,126.6340509,0
4454,청라천사약국,"인천광역시 서구 청라커낼로288번길 10, 더스페이스타워 112호 (청라동)",37.5338732,126.6456662,0
4462,송현메디칼약국,"인천광역시 동구 송현로 1, 1층 (송현동)",37.4770534,126.6333302,0
4466,샘물약국,"인천광역시 동구 송화로44번길 13-1, 금학빌딩 1층 (송현동)",37.4803453,126.6337271,0
4470,예쁜나무약국,"인천광역시 연수구 랜드마크로 20, 상가동 215호 (송도동, 호반써밋 송도)",37.4158871,126.6264655,0
4478,다사랑약국,"인천광역시 동구 화수로 43, 1층 (화수동)",37.4827223,126.633112,0
4486,정성약국,"인천광역시 동구 수문통로 7, 정성약국 (화평동)",37.4774588,126.6317003,0
4490,포도나무약국,"인천광역시 중구 우현로 90, 1층 (인현동)",37.4746726,126.6311524,0
4499,천사약국,"인천광역시 중구 인중로 134, 2층 (신생동)",37.4665194,126.6291854,0
4245,열린약국,"인천광역시 미추홀구 낙섬중로 37, 1층 (용현동)",37.4516386,126.6372773,0
4508,청안약국,"인천광역시 중구 우현로 75, 눈편한안과,상아치과,포도나무약국 (인현동)",37.4738881,126.6297312,0
4518,건강한21세기약국,"인천광역시 중구 우현로 47, (신포동)",37.4715148,126.6281661,0
4523,신포프라자온누리약국,"인천광역시 중구 우현로 41, 신포프라자약국,현대의원,풀잎문화센터 (신포동)",37.4711172,126.627903,0
4528,신포부부약국,"인천광역시 중구 우현로39번길 2, (신포동)",37.4709482,126.6278397,0
4529,청라로이약국,"인천광역시 서구 크리스탈로74번길 31, 월드프라자 109호 (경서동)",37.5320158,126.6401609,0
4539,도담약국,"인천광역시 서구 청라루비로 93, 105호 (경서동, 루비타워)",37.5334178,126.6401518,0
4547,마음편한약국,"인천광역시 서구 청라루비로 95, 108호 (경서동, 경연프라자)",37.5337439,126.6401439,0
4551,사랑온누리약국,"인천광역시 서구 검단로 500, (마전동, 플러스빌딩)",37.6026261,126.659644,0
4553,감성약국,"인천광역시 연수구 랜드마크로 68, 254호 (송도동, 랜드마크시티센트럴더샵)",37.415667,126.6199381,0
4555,랜드마크약국,"인천광역시 연수구 랜드마크로 68, 206호 (송도동, 랜드마크시티센트럴더샵)",37.415667,126.6199381,0
4560,송도우정약국,"인천광역시 연수구 랜드마크로 68, 301동 269호 (송도동, 랜드마크시티센트럴더샵)",37.415667,126.6199381,0
4567,동안생약국,"인천광역시 동구 화도진로 109, 103호 (화수동, 화도진그린빌 상가)",37.480677,126.6283267,0
4569,튼튼약국,"인천광역시 동구 화도진로 109, 화도진그린빌 상가 2층 (화수동)",37.480677,126.6283267,0
4413,즐거운약국,"인천광역시 서구 원당대로 581, (마전동, 롯데마트)",37.5945331,126.6645572,0
4412,테라스파란문약국,"인천광역시 연수구 센트럴로 415, 힐스테이트 송도 더테라스 판매시설동 148호 (송도동)",37.4105318,126.6269232,0
4405,종로모범약국,"인천광역시 동구 송현로 47, (송현동)",37.480137,126.6366921,0
4403,팜어스약국,"인천광역시 미추홀구 아암대로 109, 청솔프라자 1층 110호 일부호 (용현동)",37.4520472,126.6322704,0
4249,송도로이약국,"인천광역시 연수구 센트럴로 313, 송도 씨워크 인테라스 한라 B동 149호 (송도동)",37.4016263,126.6315176,0
4259,청라유명약국,"인천광역시 서구 청라라임로 65, 108호 (연희동, 라임타워)",37.5334604,126.6529516,0
4274,한성메디칼약국,"인천광역시 서구 완정로 36, 1층 (마전동, 한성빌딩)",37.595933,126.6702576,0
4275,건강온누리약국,"인천광역시 미추홀구 아암대로 15, 104호 (용현동)",37.4593649,126.6379145,0
4281,위드팜100세약국,"인천광역시 서구 완정로 35, (마전동, 대운프라자)",37.595581,126.6700509,0
4287,명문약국,"인천광역시 미추홀구 낙섬중로 15-1, (용현동)",37.4500615,126.6359808,0
4296,청라바다약국,"인천광역시 서구 중봉대로612번길 10-16, 마르씨엘 (청라동)",37.5333897,126.6516263,0
4299,금빛약국,"인천광역시 서구 중봉대로586번길 9-4, 쓰리엠타워 113호 (청라동)",37.5321057,126.6509415,0
4311,건강약국,"인천광역시 서구 중봉대로 588, 503호 (청라동, 청라센트럴프라자)",37.5321086,126.6502646,0
4314,봄약국,"인천광역시 서구 중봉대로 588, 302-1호 (연희동, 청라센트럴프라자)",37.5321086,126.6502646,0
4320,청라중앙약국,"인천광역시 서구 중봉대로 588, 104호 (연희동, 청라센트럴프라자)",37.5321086,126.6502646,0
4326,청라비젼약국,"인천광역시 서구 중봉대로 594, (연희동)",37.5325653,126.6502893,0
4332,청라미래약국,"인천광역시 서구 중봉대로 602, 1층 (연희동)",37.5334231,126.6502659,0
4341,블루팜약국,"인천광역시 서구 중봉대로 610, 105호 (청라동)",37.5339038,126.6502766,0
4352,인하정문약국,"인천광역시 중구 인항로 42, 신영상가 104호 (신흥동3가)",37.4569554,126.6348013,0
4357,삼성온누리약국,"인천광역시 미추홀구 낙섬서로 4, 현대메디켈센타 102호 좌측호 (용현동)",37.4500145,126.633686,0
4362,현대메디칼약국,"인천광역시 미추홀구 낙섬서로 4, (용현동)",37.4500145,126.633686,0
4363,샛별약국,"인천광역시 연수구 인천타워대로 365, 302동 213호 (송도동, 힐스테이트 송도 더스카이)",37.4020553,126.6282699,0
4370,큰사랑약국,"인천광역시 중구 서해대로 476, (유동)",37.4684195,126.6362684,0
4372,신우리들 약국,"인천광역시 미추홀구 매소홀로 63, 107호 (용현동)",37.4501915,126.6332875,0
4378,2층약국,"인천광역시 연수구 아트센터대로168번길 101, 송도랜드마크푸르지오시티 251호 (송도동)",37.4052932,126.6279733,0
4382,수약국,"인천광역시 서구 완정로 70, 211호 (마전동, 영남탑스빌아파트 상가)",37.5980111,126.6673173,0
4384,금강약국,"인천광역시 중구 인항로 34, (신흥동3가)",37.4571884,126.6340998,0
4386,메디팜인하약국,"인천광역시 중구 인항로 34, 현대상가 (신흥동3가)",37.4571884,126.6340998,0
4389,이도온누리약국,"인천광역시 서구 중봉대로 587, 지하2층 (경서동, 홈플러스 청라점)",37.5323941,126.6486992,0
4397,우리약국,"인천광역시 중구 제물량로 65, (신흥동3가)",37.465958,126.6349422,0
4399,메디안약국,"인천광역시 서구 검단로623번길 4, 105호 (마전동, 세창프라자)",37.6099315,126.6704188,0
4198,검단온누리약국,"인천광역시 서구 완정로 18, 한윤메디칼 104호 (마전동)",37.595102,126.6721924,0
2681,뉴아인약국,"인천광역시 미추홀구 경인로 372, 1014호 (주안동, 포레나 미추홀)",37.4573949,126.6811634,0
3108,인암종로약국,"인천광역시 미추홀구 석정로 327, (도화동)",37.4679571,126.6718454,0
1021,메디팜푸른약국,"인천광역시 계양구 오조산공원로 14, 홈플러스계산점 (계산동)",37.539518,126.736195,0
946,스마일약국,"인천광역시 남동구 호구포로 921, 109호 (간석동, 청산빌딩)",37.4647463,126.7205565,0
952,속편한 온누리약국,"인천광역시 남동구 호구포로 893, 1층 (간석동, 중앙빌딩)",37.462169,126.7200306,0
957,대한약국,"인천광역시 계양구 장제로875번길 1, (임학동)",37.5452442,126.7383748,0
970,만수무강약국,"인천광역시 계양구 장제로 676, 1층 102호 (작전동)",37.5282655,126.73371,0
973,365건강약국,"인천광역시 계양구 장제로 867, (임학동)",37.5447518,126.738057,0
978,새종로약국,"인천광역시 부평구 부평문화로 87, 106호, 107호, 108호 (부평동)",37.4944746,126.7258778,0
984,부부약국,"인천광역시 부평구 경인로 943, (부평동)",37.4878626,126.724447,0
990,코코약국,"인천광역시 부평구 경원대로 1404, 115호 (부평동, 그랑프리 빌딩)",37.4909488,126.7250512,0
993,행운약국,"인천광역시 계양구 장제로 708, 302호 (작전동, 한샘프라자)",37.5310293,126.7342646,0
999,세명약국,"인천광역시 계양구 장제로 714, 104호 (작전동, 세종팰리스)",37.531365,126.734236,0
1002,열린온누리약국,"인천광역시 계양구 장제로 718, 108호 (작전동, 상록메디칼센터)",37.5318346,126.734276,0
1003,유원약국,"인천광역시 계양구 장제로 718, (작전동, 상록메디컬센터)",37.5318346,126.734276,0
1005,한아름약국,"인천광역시 계양구 장제로 718, (작전동)",37.5318346,126.734276,0
1012,온누리하이팜약국,"인천광역시 계양구 계산새로 71, C동 116호 (계산동)",37.5386558,126.7360621,0
1028,노벨약국,"인천광역시 부평구 경원대로 1400-1, (부평동)",37.4911112,126.7246293,0
941,부평판도라약국,"인천광역시 부평구 경인로 947, (부평동, 태성메디칼 109호110호)",37.4878295,126.7249249,0
1030,열린대학약국,"인천광역시 계양구 장제로 728, 101,102호 (작전동, 영프라자)",37.532815,126.7342694,0
1035,남촌약국,"인천광역시 남동구 남촌동로35번길 4, (남촌동, 1층일부)",37.4319141,126.7146123,0
1037,부평하나로약국,"인천광역시 부평구 동수북로158번길 3, (부평동)",37.4888251,126.7239911,0
1045,세원약국,"인천광역시 부평구 경원대로 1395, 부평일번가 106호 (부평동)",37.491839,126.7244702,0
1046,수약국,"인천광역시 부평구 경원대로 1395, 부평일번가 102호 (부평동)",37.491839,126.7244702,0
1056,푸름약국,"인천광역시 계양구 장제로 822, 롯데마트 계양점 2층 일부호 (계산동)",37.540841,126.735966,0
1062,조은약국,"인천광역시 남동구 남동대로370번길 113, 101호 (논현동, 우진프라자)",37.41377,126.7120045,0
1063,파랑새약국,"인천광역시 남동구 함박뫼로 441, 109호 (논현동)",37.4094235,126.7115532,0
1064,새생명약국,"인천광역시 계양구 임학동로 47, 대경빌딩 (임학동)",37.5461342,126.7371264,0
1069,서울메디칼약국,"인천광역시 계양구 계산새로65번길 17, (계산동)",37.5398514,126.7353304,0
1083,우주약국,"인천광역시 부평구 시장로 7, (부평동)",37.4922,126.7240198,0
1090,분수대약국,"인천광역시 부평구 광장로 16, 부평민자역사 지하2층 39호, 40호 (부평동)",37.4895676,126.7233507,0
1096,한마을약국,"인천광역시 부평구 광장로 16, (부평동)",37.4895676,126.7233507,0
1105,영약국,"인천광역시 남동구 인하로 616, 105호 (구월동, 커뮤니티프라자)",37.442524,126.7152048,0
944,남촌중앙약국,"인천광역시 남동구 남촌동로25번길 4, 101호 (남촌동)",37.4319361,126.7157123,0
932,부평평화약국,"인천광역시 부평구 시장로 32, 1층 103호 (부평동)",37.4935787,126.7261913,0
3096,선정수약국,"인천광역시 미추홀구 학익소로 66, 선정빌딩 1층 106호 (학익동)",37.4418442,126.6703486,0
807,부평시장약국,"인천광역시 부평구 시장로 55, (부평동)",37.4954816,126.7273422,0
721,태양온누리약국,"인천광역시 계양구 양지로 151, 104호 (귤현동, 샤인빌딩)",37.5669874,126.74717,0
730,참메디칼약국,"인천광역시 계양구 장제로 916, 1층 (병방동, 계양병원)",37.5481617,126.7414689,0
733,굿모닝약국,"인천광역시 계양구 장제로 912, (병방동)",37.5477902,126.741241,0
738,도담약국,"인천광역시 계양구 장제로 910, (병방동)",37.5476716,126.7411471,0
740,메디팜우리약국,"인천광역시 계양구 장제로 929, 101호 (병방동, 돌샘프라자)",37.5494651,126.741656,0
745,센타약국,"인천광역시 계양구 계산새로 93, 103호 (용종동, 밀레니엄프라자)",37.5381515,126.7385253,0
765,영진약국,"인천광역시 남동구 호구포로535번길 24, 광천빌딩 1층 106호 (남촌동)",37.4300815,126.7168899,0
769,세기약국,"인천광역시 계양구 장제로 911, (병방동)",37.5478606,126.7406685,0
776,우정약국,"인천광역시 부평구 부평문화로 100-1, (부평동)",37.4941157,126.7274444,0
779,하늘약국,"인천광역시 계양구 장제로 907, 1층 (병방동)",37.5476577,126.7405077,0
781,모래내시장역미래약국,"인천광역시 남동구 구월로 268, 대성빌딩 104호 (구월동)",37.4556168,126.7203139,0
794,편안약국,"인천광역시 부평구 시장로 55-1, 1층 (부평동)",37.4956125,126.7274909,0
799,별하약국,"인천광역시 부평구 시장로 48, 1층 108호 (부평동)",37.4947006,126.7272475,0
804,일광온누리약국,"인천광역시 부평구 부평문화로 97, 1층 일부호 (부평동)",37.4944237,126.7271311,0
808,사과약국,"인천광역시 부평구 부평문화로 96, 1층 (부평동, 해인빌딩)",37.4941548,126.7270385,0
925,경도약국,"인천광역시 남동구 호구포로535번길 48-2, (남촌동, 1층일부)",37.430028,126.7156471,0
816,튼튼약국,"인천광역시 계양구 계양산로 216, 1층 일부호 (임학동)",37.5473803,126.7399867,0
821,다인약국,"인천광역시 남동구 호구포로 770, 1층 102호 (구월동)",37.4510136,126.7191452,0
833,아름다운건강 한약국,"인천광역시 남동구 호구포로 920, 212호 (만수동, 햇빛마을벽산아파트상가)",37.464346,126.7212244,0
836,햇빛약국,"인천광역시 남동구 호구포로 920, 309호 (만수동, 벽산아파트상가)",37.464346,126.7212244,0
844,청십자약국,"인천광역시 남동구 호구포로 798, 1층 (구월동)",37.4535915,126.7194364,0
845,나음약국,"인천광역시 계양구 오조산공원로 26, 104호 (용종동)",37.5397131,126.7377019,0
850,모래내시장온누리약국,"인천광역시 남동구 호구포로 794-1, 1층 (구월동)",37.4532253,126.7193693,0
858,늘편안약국,"인천광역시 남동구 호구포로 818, 퍼스트하임프라자 4층 404-1호 (구월동)",37.4553712,126.719691,0
862,밝은약국,"인천광역시 남동구 호구포로 818, 203호 (구월동, 퍼스트하임프라자)",37.4553712,126.719691,0
875,한누리약국,"인천광역시 남동구 호구포로 818, 111호 (구월동, 퍼스트하임프라자)",37.4553712,126.719691,0
882,재준약국,"인천광역시 남동구 호구포로 808, 102호 (구월동, 수전빌딩)",37.4544923,126.7195378,0
886,구월약국,"인천광역시 남동구 호구포로 830, 1층 일부 (구월동)",37.4563267,126.7198133,0
889,퍼스트시티경도약국,"인천광역시 남동구 호구포로 812, 102호 (구월동, 한빛하이존)",37.4547904,126.7195608,0
913,온누리건강백화점약국,"인천광역시 계양구 계양문화로 96, 강북프라자 112~113호 (용종동)",37.5392561,126.7372213,0
1118,호구포온누리약국,"인천광역시 남동구 호구포로 220, 106호 (논현동, 명진프라자)",37.4024026,126.7103443,0
1122,부평조은약국,"인천광역시 부평구 부평대로 6, 102호 (부평동, 대신플라자)",37.4921197,126.7235993,0
1129,나라약국,"인천광역시 부평구 주부토로 82, 1층 일부호 (부평동)",37.5023191,126.7256787,0
1422,하나약국,"인천광역시 계양구 경명대로 1116, 104호 (계산동, 하나상가)",37.542765,126.7312404,0
1339,바다약국,"인천광역시 부평구 주부토로 231, 1층 106호 (갈산동, 갈산홈프라자)",37.5158535,126.7260311,0
1346,나래약국,"인천광역시 부평구 부평문화로 43, 1층 (부평동)",37.4941697,126.7211049,0
1351,벧엘약국,"인천광역시 남동구 구월로 212, 216호 (구월동, 힐캐슬프라자)",37.4560189,126.7140509,0
1352,애플약국,"인천광역시 남동구 구월로 212, 힐캐슬프라자 315호 (구월동)",37.4560189,126.7140509,0
1353,우리온누리약국,"인천광역시 남동구 구월로 212, 1601동 234호 (구월동, 힐캐슬프라자)",37.4560189,126.7140509,0
1360,해맑은약국,"인천광역시 계양구 경명대로1114번길 21, (계산동)",37.5416278,126.7323521,0
1368,부평시장역4번출구약국,"인천광역시 부평구 부평대로 83, 강남타워 1층 102호 (부평동)",37.4989467,126.7217341,0
1377,장원약국,"인천광역시 부평구 부평문화로 38, 103호 (부평동)",37.4936905,126.7206197,0
1381,뉴백세약국,"인천광역시 부평구 부평대로 89, 1층 (부평동, 세정빌딩)",37.4994788,126.7217468,0
1384,동대약국,"인천광역시 부평구 부평대로 114, (부평동)",37.5017939,126.7222077,0
1397,메드칼약국,"인천광역시 남동구 백범로 322, 1층 (간석동, 진메디칼센타)",37.464163,126.7145821,0
1405,행복약국,"인천광역시 부평구 부흥로 264, (부평동, 동아웰빙타운302-2호)",37.4983356,126.7211007,0
1409,사랑약국,"인천광역시 부평구 경인로 883, (부평동)",37.4856788,126.71836,0
1415,아름다운약국,"인천광역시 남동구 용천로 157, (간석동)",37.4637068,126.714247,0
1424,이층약국,"인천광역시 남동구 선수촌공원로 36, 더블루시티 2층 219호 (구월동)",37.4421653,126.7105494,0
1143,인천제일큰약국,"인천광역시 계양구 장제로 789, 1층 (계산동)",37.5384276,126.7341116,0
1432,삼릉약국,"인천광역시 부평구 부영로 11, 광현빌딩 1층 (부평동)",37.4862487,126.7175534,0
1436,메디칼약국,"인천광역시 계양구 경명대로 1115, 3층 (계산동, 인평프라자)",37.5434877,126.73095,0
1444,성모약국,"인천광역시 부평구 안남로 5, 1층 (부평동)",37.4852821,126.7170722,0
1447,지성온누리약국,"인천광역시 남동구 인주대로 664, 110호 (구월동, 메인프라자)",37.4491755,126.7108112,0
1449,하늘약국,"인천광역시 남동구 인주대로 664, 112호 (구월동, 메인프라자2차)",37.4491755,126.7108112,0
1450,갈산종로약국,"인천광역시 부평구 평천로 302, 102호 (갈산동)",37.5168877,126.7238805,0
1455,아시아드메디칼온누리약국,"인천광역시 남동구 인하로 568, 104호 (구월동, 아시아드타워(상업5-2))",37.4425109,126.7097101,0
1461,늘좋은약국,"인천광역시 남동구 독점로30번길 1, (구월동)",37.452429,126.7111112,0
1467,리뉴약국,"인천광역시 부평구 부평대로 153, 부평구청역대명벨리온 1층 130호 (부평동)",37.5051096,126.7208191,0
1473,새한약국,"인천광역시 부평구 부흥로 247, (부평동)",37.4990305,126.7193101,0
1477,봄빛약국,"인천광역시 남동구 구월남로 190, 104호 (구월동, 퍼스트프라자)",37.4526873,126.7107209,0
1484,우리들약국,"인천광역시 부평구 부흥로 245, 101호 (부평동)",37.4990508,126.7191114,0
1491,계산제일약국,"인천광역시 계양구 주부토로496번길 2, 1층 일부호 (계산동)",37.5384532,126.7283665,0
1496,신이화약국,"인천광역시 계양구 주부토로 477, (계산동)",37.536781,126.7278143,0
1336,부평제일약국,"인천광역시 부평구 부평문화로 46, 102호 (부평동)",37.4937242,126.7211928,0
1334,부평수약국,"인천광역시 부평구 경원대로 1366, 스테이션 타워 105호 (부평동)",37.4909756,126.7206379,0
1330,부평온누리약국,"인천광역시 부평구 부평대로 90, 여산빌딩, 101호 일부 (부평동)",37.4995605,126.7224707,0
1326,든든약국,"인천광역시 부평구 부평대로 67, 1층 101호 (부평동)",37.4973826,126.7220321,0
1149,아름드리약국,"인천광역시 남동구 선수촌로 37, 103호 (구월동, SJ프라자)",37.4426506,126.7145075,0
1151,다온약국,"인천광역시 부평구 길주남로 35, 도형빌딩 1층 일부호 (부평동)",37.5047898,126.7257525,0
1154,부평건강약국,"인천광역시 부평구 주부토로 112, 삼진빌딩, 1층 일부 (부평동)",37.5049876,126.7258004,0
1156,가나메디칼약국,"인천광역시 부평구 부평대로 24, 1층 (부평동, 가나베스트텔)",37.4935676,126.7233183,0
1164,수보당약국,"인천광역시 부평구 부평대로 24, 103호, 104호 (부평동, 가나베스트빌)",37.4935676,126.7233183,0
1168,한사랑약국,"인천광역시 부평구 부흥로294번길 4, 101호 (부평동, 추인타워)",37.4982125,126.7242883,0
1175,기린약국,"인천광역시 남동구 인하로 607, 모아프라자(근생9-1-2) (구월동)",37.4431313,126.7143902,0
1184,미약국,"인천광역시 부평구 광장로 4, 1층 일부호 (부평동)",37.4910417,126.7225508,0
1197,중앙온누리약국,"인천광역시 부평구 부평대로 11, (부평동)",37.4923542,126.7226837,0
1198,진선약국,"인천광역시 부평구 부평대로32번길 1, 1층 (부평동)",37.4943913,126.7231052,0
1217,종로약국,"인천광역시 부평구 부평대로 36-1, (부평동)",37.4947116,126.7230502,0
1224,한길온누리약국,"인천광역시 계양구 봉오대로 739, (작전동)",37.5307616,126.731264,0
1229,새봄약국,"인천광역시 부평구 부평대로 19-1, 2층 (부평동)",37.4931576,126.7225052,0
1235,제일약국,"인천광역시 남동구 구월로 223, 위너스프라자 1층 107호, 108호일부호 (구월동)",37.4564911,126.7157168,0
1238,청약국,"인천광역시 부평구 주부토로 182, (갈산동)",37.5113078,126.7263215,0
1244,비타민약국,"인천광역시 부평구 길주남로10번길 21, (부평동, 래미안부평상가1동 101호)",37.5031427,126.7244292,0
1252,살맛나는온누리약국,"인천광역시 부평구 부평대로 33, 1층 (부평동, 창성빌딩)",37.4943857,126.7225294,0
1256,소망약국,"인천광역시 계양구 주부토로 372, (작전동)",37.5276137,126.7301223,0
1259,건강도우미약국,"인천광역시 계양구 주부토로 374, (작전동)",37.5278531,126.7301319,0
1276,포도나무약국,"인천광역시 부평구 부평문화로 55, 103호 (부평동, YD타워)",37.4942911,126.7222819,0
1280,밝은약국,"인천광역시 부평구 경원대로 1373, 북인천우체국 1층 일부호 (부평동)",37.4915427,126.7215643,0
1289,동호튼튼약국,"인천광역시 남동구 용천로 70, 1층 (구월동, 동호프라자)",37.4558916,126.7149615,0
1293,삼정프라자약국,"인천광역시 남동구 용천로88번길 3, (구월동, 1층일부)",37.4573783,126.7151709,0
1297,굿모닝약국,"인천광역시 부평구 굴포로 42, (갈산동)",37.5115888,126.7257503,0
1299,차승은약국,"인천광역시 부평구 굴포로 42, (갈산동)",37.5115888,126.7257503,0
1304,중앙온누리약국,"인천광역시 계양구 효서로 300, 삼호프라자 107호 (작전동)",37.5278344,126.7296073,0
1313,호호약국,"인천광역시 부평구 부평대로51번길 7, 제이·원 부평메디피아 1층 101호 (부평동)",37.4958941,126.7221632,0
1322,자연약국,"인천광역시 부평구 부평대로 59, 102호 (부평동, 성창빌딩)",37.4967353,126.7221409,0
1323,솔약국,"인천광역시 부평구 주부토로 261, (갈산동)",37.5183811,126.7267971,0
716,모래내약국,"인천광역시 남동구 구월남로 280, (구월동, 알파프라자 105호)",37.451961,126.7208138,0
712,행복한온누리약국,"인천광역시 계양구 오조산로 53, (계산동)",37.5355942,126.7382857,0
703,금호약국,"인천광역시 부평구 장제로 205, (부평동)",37.5040572,126.7307101,0
253,아라약국,"인천광역시 남동구 백범로 123, 상지프라자 1층 일부(107)호 (만수동)",37.4546261,126.733158,0
196,영신약국,"인천광역시 남동구 인주대로 861, (만수동, 1층일부)",37.4486273,126.7331572,0
201,다정한약국,"인천광역시 부평구 수변로 74, 102호 (부개동, 삼성타운)",37.493152,126.741099,0
205,아침을여는세명약국,"인천광역시 남동구 만수로 65, (만수동)",37.4616093,126.7351239,0
207,그린팜우리약국,"인천광역시 남동구 논고개로 325, 1층 (도림동)",37.4191998,126.7291126,0
212,가산메디칼약국,"인천광역시 남동구 논고개로 71, 108호 (논현동, 가산타워)",37.3980272,126.7268514,0
213,다인약국,"인천광역시 부평구 수변로 8, 106호 (부개동, 파워프라자)",37.487237,126.7397241,0
223,은하약국,"인천광역시 남동구 만수로 63, 만수 쎈타 플라자 101-2호 (만수동)",37.4614074,126.7348375,0
224,부개약국,"인천광역시 부평구 경인로 1076, (부개동)",37.4861329,126.739379,0
226,부개수성약국,"인천광역시 부평구 수변로 43, 코스모스빌딩 103,104호 (부개동)",37.4904757,126.7401534,0
229,논현그린약국,"인천광역시 남동구 논고개로 73, (논현동)",37.398259,126.7265621,0
232,365열린약국,"인천광역시 부평구 부일로 87, (부개동, 송신빌딩)",37.4889969,126.7397559,0
236,논현조은약국,"인천광역시 남동구 논고개로 80, 나로프라자 1층 104호 (논현동)",37.3991926,126.7265383,0
242,성수약국,"인천광역시 남동구 백범로124번길 7, 122호 (만수동)",37.4555579,126.7333928,0
249,이로운약국,"인천광역시 남동구 논고개로 77, 에코타워 1층 109호 (논현동)",37.3984464,126.726258,0
254,옵티마자연약국,"인천광역시 부평구 수변로107번길 58, 인왕빌딩 (부개동)",37.4935743,126.7403689,0
354,향촌우리약국,"인천광역시 남동구 만수서로 56, 105호 (만수동, 향촌메디칼)",37.4614785,126.7321987,0
257,논현모두약국,"인천광역시 남동구 논고개로 86, 101호 (논현동, 모아프라자)",37.399423,126.7262143,0
267,동양약국,"인천광역시 계양구 동양로 103, 104호 (동양동, 세진프라자)",37.5590223,126.7564953,0
271,21세기약국,"인천광역시 남동구 만수로 47, 102호 (만수동)",37.4605429,126.7335641,0
278,한솔약국,"인천광역시 남동구 만수로 47, (만수동)",37.4605429,126.7335641,0
286,논현큰사랑약국,"인천광역시 남동구 앵고개로847번길 50, 107,108호 (논현동, 토브타워)",37.3983441,126.7255272,0
287,만수윤약국,"인천광역시 남동구 만수로 45, 1층 일부호 (만수동)",37.4604603,126.7333546,0
294,경동약국,"인천광역시 남동구 구월로 376, 101호 (만수동, 정은프라자)",37.4547188,126.7323252,0
299,진약국,"인천광역시 남동구 청능대로 596, B2층 J5호 (논현동, 홈플러스인천논현점)",37.4006203,126.7255593,0
308,차세대건강약국,"인천광역시 남동구 논고개로 87, 108호 (논현동, 논현메디스타워)",37.3990976,126.7253283,0
309,동양약국,"인천광역시 남동구 만수로 39, 2층 111호 (만수동, 만수상사아파트)",37.460093,126.7328958,0
313,아빠약국,"인천광역시 남동구 만수서로 62, (만수동)",37.4614272,126.7330584,0
316,휴먼시아약국,"인천광역시 남동구 앵고개로847번길 64, 골든프라자 (논현동)",37.3987467,126.7249452,0
337,아빠곰 약국,"인천광역시 남동구 논고개로 114, 에이스타워 101,102호 (논현동)",37.4014468,126.7246687,0
338,중앙약국,"인천광역시 남동구 논고개로 114, 105호 (논현동, 에이스타워)",37.4014468,126.7246687,0
192,신이화약국,"인천광역시 남동구 에코중앙로156번길 5-12, 1층 (논현동)",37.3914311,126.7266607,0
187,에코메트로약국,"인천광역시 남동구 에코중앙로156번길 5-23, 1층 (논현동, 에코그린타워1)",37.3920898,126.72681,0
177,365라피에스타약국,"인천광역시 남동구 논고개로 61, 라피에스타 (논현동)",37.3975366,126.7275277,0
173,참약국,"인천광역시 남동구 논고개로 337, 1층 (도림동)",37.4199044,126.7300535,0
13,베스트약국,"인천광역시 남동구 서창남순환로 222, 108호 (서창동, 센타프라자)",37.4241594,126.7495132,0
31,플러스약국,"인천광역시 남동구 서창남순환로 223, 130,131호 (서창동, 아페리온 A동)",37.4248367,126.7489215,0
36,스타약국,"인천광역시 남동구 서창남순환로216번길 12, 월드타워 (서창동)",37.4235218,126.7485716,0
40,솔약국,"인천광역시 남동구 서창남로 77, 1층 107호 (서창동)",37.4258932,126.7482477,0
48,늘온누리약국,"인천광역시 남동구 서창남순환로215번길 17, 114호 (서창동)",37.4247276,126.7475898,0
50,미소약국,"인천광역시 남동구 서창남순환로215번길 48, 102호 (서창동)",37.4261816,126.7476057,0
57,서창약국,"인천광역시 남동구 매소홀로 1137, 1층 (서창동)",37.4385845,126.7491085,0
59,메디팜서창약국,"인천광역시 남동구 서창남순환로215번길 35, 109호 (서창동)",37.4254896,126.7470575,0
66,우리약국,"인천광역시 남동구 독곡로6번길 4, 1층 (서창동)",37.4379693,126.7468566,0
68,오약국,"인천광역시 남동구 서창남순환로 140, 1층 105호 (서창동)",37.4279312,126.7436649,0
71,대한약국,"인천광역시 남동구 앵고개로 963, 1층 (논현동)",37.4036533,126.7370676,0
73,윤정희약국,"인천광역시 남동구 포구로 64-35, (논현동)",37.4056873,126.7371101,0
83,하나약국,"인천광역시 남동구 포구로 75, 101호 (논현동, 송원빌딩)",37.4051294,126.7357593,0
93,담방사거리약국,"인천광역시 남동구 장승남로 61, 인일프라자 1층 107호 (만수동)",37.4436635,126.7390452,0
96,명지약국,"인천광역시 남동구 담방로 105, 7701동 103호 (만수동, 만수주공7단지임대상가)",37.4501834,126.7400216,0
101,소래약국,"인천광역시 남동구 앵고개로 928, 108호 (논현동, 디에이프라자)",37.4017932,126.733912,0
102,서울메디카약국,"인천광역시 남동구 포구로 96, 203호 (논현동, 주공13단지상가)",37.406606,126.7342925,0
107,천지약국,"인천광역시 남동구 담방로 39, 로얄프라자 104호 (만수동)",37.4431634,126.7385406,0
114,샛별약국,"인천광역시 남동구 담방로 45, 2층 (만수동)",37.4435813,126.7385704,0
118,영광약국,"인천광역시 남동구 장승남로 54, 106호 (만수동, 신영프라자)",37.4432158,126.7383068,0
129,행복한우리약국,"인천광역시 남동구 장승남로 46, 103호 (만수동, 조은빌딩)",37.4432587,126.7372585,0
134,위케어 만수약국,"인천광역시 남동구 장승로 41, 1층 102호 (만수동)",37.4453313,126.7372071,0
135,늘희망약국,"인천광역시 부평구 일신로14번길 34, (일신동)",37.4843265,126.743797,0
140,새솔약국,"인천광역시 남동구 장승남로 38, 반달프라자 102호 (만수동)",37.4431887,126.7364244,0
142,인천굿모닝약국,"인천광역시 남동구 장승남로 37, 1층 (만수동, 스카이프라자)",37.4436499,126.736418,0
145,대웅약국,"인천광역시 남동구 장승남로 36, 1층 (만수동, 만수프라자)",37.4431662,126.7362018,0
148,신세계약국,"인천광역시 부평구 경인로1118번길 14-7, (일신동)",37.4847227,126.7432898,0
156,한울약국,"인천광역시 부평구 경인로1104번길 23, (일신동)",37.4845848,126.7421563,0
163,녹지원약국,"인천광역시 남동구 만수로 107, 1층 (만수동)",37.4647314,126.7377092,0
341,논현이화약국,"인천광역시 남동구 논고개로 101, 505-1호 (논현동, 아름다운타워)",37.4000007,126.7243667,0
358,우수약국,"인천광역시 부평구 부개로 9, (부개동)",37.498367,126.7392071,0
697,연세프라자약국,"인천광역시 남동구 구월로 280, (구월동, 1층일부)",37.4555385,126.7216543,0
607,정다운약국,"인천광역시 부평구 장제로 27, 1층 (부평동, 해마루상가)",37.4876972,126.729051,0
533,찬수온누리약국,"인천광역시 계양구 용종로 2, 계산프라자 (계산동)",37.5340374,126.7415048,0
546,오렌지약국,"인천광역시 부평구 후정동로 35, (삼산동)",37.5207082,126.7378835,0
548,튼튼드림약국,"인천광역시 부평구 후정동로 35, (삼산동)",37.5207082,126.7378835,0
550,고은약국,"인천광역시 남동구 구월말로 117, 1층 (만수동)",37.4596934,126.725319,0
556,동인당약국,"인천광역시 부평구 체육관로 30, 삼산동 이리옴프라자 1층 103호 (삼산동)",37.5083227,126.7348128,0
564,백제약국,"인천광역시 부평구 부흥로365번길 3, (부평동)",37.4982613,126.732397,0
566,성심약국,"인천광역시 부평구 부평문화로130번길 48, 1층 (부평동)",37.4918061,126.7309635,0
570,큰약국,"인천광역시 부평구 장제로 62, M-city 106호 (부평동)",37.4909181,126.7307424,0
571,삼산미소약국,"인천광역시 부평구 길주로 643, 명윤빌딩 1층 일부(101호)호 (삼산동)",37.5072206,126.734204,0
582,청호약국,"인천광역시 부평구 체육관로 24, 청호빌딩 1층 103호 (삼산동)",37.5083367,126.7342964,0
583,경기프라자약국,"인천광역시 계양구 아나지로417번길 20, (작전동)",37.5274639,126.7388919,0
590,행복약국,"인천광역시 계양구 장제로 1004, 107호 (박촌동, 계양한양수자인)",37.5547854,126.7463043,0
602,종합메디칼약국,"인천광역시 계양구 효서로 380, 108호 (작전동, 신현대상가)",37.5275328,126.7382042,0
604,한솔약국,"인천광역시 계양구 효서로 380, 106~107호 (작전동, 신현대타운)",37.5275328,126.7382042,0
611,엘림약국,"인천광역시 부평구 길주로 635, 107호 (삼산동, 엘림타워)",37.5072805,126.7332099,0
365,살맛나는온누리약국,"인천광역시 남동구 만수서로 52, 1층 104호 (만수동, 쓰리제이프라자)",37.4614552,126.7317473,0
615,새싹약국,"인천광역시 계양구 양지로 133, 1층 (귤현동)",37.5669939,126.7490603,0
621,삼산대한약국,"인천광역시 부평구 충선로 313, (삼산동)",37.5171679,126.7352089,0
626,나눔약국,"인천광역시 부평구 길주로 633, 104호, 105호 (삼산동, 삼산메디캐슬)",37.507306,126.7328743,0
634,명성온누리약국,"인천광역시 부평구 체육관로 14, 309호 (삼산동)",37.5083887,126.7330981,0
639,성모당약국,"인천광역시 계양구 장제로1009번길 2, (박촌동)",37.5558354,126.745366,0
651,중앙약국,"인천광역시 계양구 병방로 17, 제일빌딩 (병방동)",37.5467101,126.7424679,0
656,365약국,"인천광역시 계양구 오조산로 1, 거승프라자 107호 (작전동)",37.5309654,126.7378296,0
662,하나로약국,"인천광역시 부평구 경원대로 1436, 1층 (부평동)",37.4908748,126.7285171,0
667,한마음약국,"인천광역시 계양구 오조산로 3, 한미리빌딩 (작전동)",37.5312215,126.7378279,0
670,구월프라자약국,"인천광역시 남동구 구월로 284, (구월동, 1층일부)",37.4554992,126.7220206,0
679,21세기맑은약국,"인천광역시 부평구 길주로 623, 지하2층 (삼산동)",37.5083726,126.7320632,0
680,롯데약국,"인천광역시 부평구 길주로 623, 대덕리치아노 3층 331호 (삼산동)",37.5083726,126.7320632,0
685,행복한약국,"인천광역시 부평구 길주로 623, 328호 (삼산동, 대덕리치아노)",37.5083726,126.7320632,0
694,모래내 참사랑약국,"인천광역시 남동구 구월남로 283, 106호 (구월동)",37.4522739,126.7211462,0
531,이층메디칼약국,"인천광역시 계양구 용종로 2, 2층 (계산동)",37.5340374,126.7415048,0
527,전원약국,"인천광역시 부평구 후정동로 21, 1층 (삼산동, 화령빌딩)",37.5195276,126.7378414,0
524,늘봄약국,"인천광역시 부평구 길주남로 113, (부개동)",37.5042047,126.7343078,0
522,유림약국,"인천광역시 부평구 부일로 11, 205호 (부평동, 아이앤비아파트)",37.490697,126.731542,0
370,논현종로약국,"인천광역시 남동구 청능대로 583, 107호 (논현동, 중앙프라자)",37.401382,126.7239435,0
374,논현프라자약국,"인천광역시 남동구 논고개로 117, 메트로타워 (논현동)",37.4016866,126.7238651,0
375,동서약국,"인천광역시 남동구 논고개로 121, 108호 (논현동, 에스닷몰)",37.4019437,126.7237705,0
388,일등메디칼약국,"인천광역시 남동구 청능대로 581, 103호 (논현동, 광성프라자)",37.4012832,126.7235904,0
398,대추밭약국,"인천광역시 부평구 길주남로 158, 부개프라자 105호 (부개동)",37.5035857,126.7394035,0
406,착한약국,"인천광역시 부평구 길주남로 157, 태성프라자 104호 (부개동)",37.5039991,126.7393501,0
407,동의그린약국,"인천광역시 부평구 영성로 34, (삼산동)",37.519703,126.7430145,0
429,하늘약국,"인천광역시 부평구 부평북로 446, (삼산동)",37.5216986,126.7430146,0
431,365논현약국,"인천광역시 남동구 청능대로 575, 1층 일부(124,125)호 (논현동)",37.4011243,126.7227053,0
432,정다운약국,"인천광역시 남동구 만수로 7, (만수동)",37.4581807,126.7299545,0
434,동민약국,"인천광역시 부평구 부흥로 408, (부개동)",37.4974324,126.7373385,0
436,새봄약국,"인천광역시 남동구 구월로 348, 광산빌딩 (만수동)",37.4549797,126.7292363,0
441,테루파약국,"인천광역시 부평구 영성서로 37, 104호 (삼산동)",37.521483,126.7426314,0
444,메디팜우리들약국,"인천광역시 부평구 부평북로 442, 105호 (삼산동, 삼산프라자)",37.5217044,126.7424966,0
448,365행복약국,"인천광역시 남동구 논고개로123번길 35, 칼리오페 1층 A동 126호 (논현동)",37.4015154,126.7220901,0
455,푸른약국,"인천광역시 남동구 구월남로342번길 3, (만수동)",37.4515899,126.727887,0
465,논현참사랑약국,"인천광역시 남동구 논현역로 8, 105호 (논현동, 아이엠프라자)",37.4014737,126.720999,0
469,스타약국,"인천광역시 부평구 부흥로 393, 1층 (부개동)",37.4980854,126.7355329,0
473,이레중앙약국,"인천광역시 남동구 구월로 332, (만수동)",37.4551234,126.7274383,0
476,수제약국,"인천광역시 부평구 동수로 125, (부개동)",37.4850372,126.7326286,0
478,메디칼제일약국,"인천광역시 부평구 충선로 174, (부개동)",37.5048013,126.7366941,0
482,비타민온누리약국,"인천광역시 부평구 길주남로 124, (부개동, 동성빌딩)",37.5038311,126.7355858,0
488,소명약국,"인천광역시 남동구 백범로 204, (만수동, 1층일부)",37.4597471,126.72673,0
493,참사랑약국,"인천광역시 남동구 복개동로 64, (만수동, 1층일부)",37.4534539,126.725613,0
496,삼산약국,"인천광역시 부평구 체육관로 40, 107호 (삼산동, 신영프라자)",37.5082494,126.7361446,0
500,옵티마삼산제일약국,"인천광역시 부평구 후정동로 12, 105,108호 (삼산동)",37.5185426,126.7383441,0
504,환도약국,"인천광역시 부평구 충선로 21, (부평동)",37.4924516,126.732419,0
508,드림약국,"인천광역시 부평구 체육관로 38, 303호 (삼산동, 세원빌딩)",37.5082844,126.7358105,0
514,강약국,"인천광역시 부평구 수변로 333, (삼산동, 삼산타운주공아파트상가 204호)",37.5152051,126.737225,0
1502,진약국,"인천광역시 계양구 주부토로 479, (계산동)",37.5369946,126.7277364,0
1510,연세약국,"인천광역시 계양구 주부토로 526, 1층 (계산동)",37.5411118,126.7285104,0
1512,그린팜약국,"인천광역시 남동구 석산로 171, 동양스포츠센타 1층 (간석동)",37.4608371,126.7110995,0
2630,바른약국,"인천광역시 연수구 먼우금로188번길 12, 이리옴3빌딩 115호 (연수동)",37.4134271,126.6765279,0
2544,효성약국,"인천광역시 연수구 원인재로 88, 101호 (동춘동, 대우삼환아파트상가)",37.4051487,126.678875,0
2547,연수약국,"인천광역시 연수구 용담로 131, 1층 (연수동)",37.4140323,126.6791504,0
2551,주안시민약국,"인천광역시 미추홀구 경인로 399-1, 훈산빌딩 1층 일부층 (주안동)",37.4584739,126.6845482,0
2562,진온누리약국,"인천광역시 서구 원당대로 1045, 금호헤리티지7 1층 112호 (원당동)",37.5940146,126.7167718,0
2570,참약국,"인천광역시 서구 이음1로 383, 세중시그니쳐 101호 (원당동)",37.5947223,126.7168326,0
2575,양지약국,"인천광역시 연수구 용담로 115, 112호 (연수동, 파크타워)",37.4151256,126.677832,0
2580,성약국,"인천광역시 연수구 샘말로7번길 7, 썬클리닉빌딩 1층 (연수동)",37.4121873,126.6773887,0
2594,바른아산약국,"인천광역시 미추홀구 인하로299번길 3, 일정빌딩 1층 (주안동)",37.4481802,126.6813977,0
2599,휴베이스퍼스트약국,"인천광역시 서구 이음5로 80, 108호 (원당동)",37.5952859,126.7163088,0
2601,파란약국,"인천광역시 미추홀구 석정로 437, (주안동)",37.4666538,126.6841672,0
2608,튼튼한약국,"인천광역시 서구 이음대로 479, 104호 (당하동)",37.5849315,126.7128787,0
2610,열린약국,"인천광역시 연수구 먼우금로 194, 1층 117호 (연수동)",37.414348,126.6770179,0
2612,주안메디카약국,"인천광역시 미추홀구 석정로 436, (주안동)",37.4662827,126.684035,0
2627,연수버들약국,"인천광역시 연수구 먼우금로 190, 연수프라자 1층 109,110호 (연수동)",37.4140587,126.6767294,0
2633,연수태평양약국,"인천광역시 연수구 먼우금로188번길 12, (연수동)",37.4134271,126.6765279,0
2715,건강백세약국,"인천광역시 미추홀구 미추홀대로 561, (주안동)",37.4475883,126.6790165,0
2635,하나약국,"인천광역시 연수구 먼우금로188번길 12, 이리옴3빌딩 106,107,108호 (연수동)",37.4134271,126.6765279,0
2644,연수건강옵티마약국,"인천광역시 연수구 청능대로 103, 1층 (연수동, BYC빌딩)",37.4136449,126.6762951,0
2651,위드팜굿모닝약국,"인천광역시 미추홀구 석정로 430, (주안동)",37.4663775,126.6832767,0
2662,해든소망약국,"인천광역시 연수구 먼우금로 189, 2층 (청학동, 소망글로벌)",37.4146343,126.675868,0
2666,김재준약국,"인천광역시 미추홀구 미추홀대로 576, (주안동)",37.4487761,126.6800283,0
2675,효성메디칼약국,"인천광역시 연수구 청능대로 93, 102호 (청학동, 두손빌딩)",37.4143364,126.6756837,0
2682,아이사랑약국,"인천광역시 미추홀구 경인로 372, 1011호 (주안동, 포레나 미추홀)",37.4573949,126.6811634,0
2683,아이사랑약국,"인천광역시 미추홀구 경인로 372, 1011호 (주안동, 포레나 미추홀)",37.4573949,126.6811634,0
2684,애비뉴퍼스트약국,"인천광역시 미추홀구 경인로 372, 1012, 1013호 (주안동, 포레나 미추홀)",37.4573949,126.6811634,0
2686,코뿔소약국,"인천광역시 미추홀구 경인로 372, 1018호 (주안동, 포레나 미추홀)",37.4573949,126.6811634,0
2695,메디팜현상약국,"인천광역시 미추홀구 미추홀대로 628, 1층 (주안동)",37.453326,126.6801088,0
2703,희망약국,"인천광역시 미추홀구 미추홀대로 573, 1층 (주안동)",37.4485367,126.6793104,0
2704,123약국,"인천광역시 미추홀구 주안로 107, 금강메디컬센터 1층 105,106호 (주안동)",37.4642853,126.6817288,0
2711,예지원약국,"인천광역시 미추홀구 미추홀대로 581, (주안동)",37.4493575,126.6793262,0
2533,기약국,"인천광역시 계양구 봉오대로477번길 19, 307호 (효성동, 태산아파트)",37.5297464,126.7010048,0
2527,최현수약국,"인천광역시 연수구 비류대로 429, (연수동)",37.4244155,126.6825195,0
2520,간석온누리약국,"인천광역시 남동구 경원대로 971, (간석동, 홈플러스 2층일부)",37.4695704,126.6891014,0
2517,솔로몬약국,"인천광역시 연수구 용담로 153, 대동월드스포츠센터 2층 201호 일부, 201-1호 (연수동)",37.4132869,126.6814138,0
2346,하나온누리약국,"인천광역시 부평구 마장로 430, 102호 (청천동)",37.5165022,126.7045076,0
2347,대명약국,"인천광역시 부평구 길주로364번길 9, 123호 (산곡동, 부평 IPARK)",37.5080267,126.7025566,0
2358,풍산원약국,"인천광역시 부평구 마장로 446, 1층 (청천동)",37.5179078,126.7046957,0
2365,이화약국,"인천광역시 부평구 마장로 435, (청천동)",37.5169958,126.7039837,0
2371,청천약국,"인천광역시 부평구 청중로 61, 1층 일부호 (청천동)",37.5177068,126.704045,0
2374,우성약국,"인천광역시 남동구 방축로 503, 108호 (간석동, 우성상가)",37.4660015,126.6936341,0
2379,간석약국,"인천광역시 남동구 석정로 518, 1동 1층 6,7호 (간석동)",37.4655106,126.6932226,0
2395,한솔약국,"인천광역시 부평구 세월천로 67, (산곡동, 명성빌딩)",37.5130788,126.7019092,0
2409,봄빛약국,"인천광역시 연수구 원인재로 180, 101호 (연수동, 연수우성2차아파트상가)",37.4117343,126.6846067,0
2414,새봄약국,"인천광역시 연수구 청능대로 210, 홈플러스 지하1층 X6,YI호 (동춘동) (동춘동)",37.4059982,126.6836221,0
2416,스퀘어365약국,"인천광역시 연수구 청능대로 210, 스퀘어원 3층 (동춘동)",37.4059982,126.6836221,0
2423,새봄온누리약국,"인천광역시 미추홀구 경원대로 836, 102호 (주안동)",37.457296,126.6897084,0
2429,석바위하나약국,"인천광역시 미추홀구 경원대로 848, 주안태흥프라자 104호 (주안동)",37.458437,126.689846,0
2434,수정약국,"인천광역시 부평구 원적로 290, (산곡동)",37.5044499,126.6983792,0
2440,세계로건강약국,"인천광역시 미추홀구 경원대로 858, 1층 (주안동, 씨티프라자)",37.4593625,126.6898691,0
2444,천우약국,"인천광역시 미추홀구 경원대로 856, (주안동)",37.4591134,126.689781,0
2450,부평새천년약국,"인천광역시 부평구 마곡로 14, 근린생활시설 상가동 B110일부호 (산곡동, 부평두산위브더파크)",37.5128911,126.6997577,0
2458,아이튼튼약국,"인천광역시 부평구 산청로 97, 상가5동 1층 504호 (청천동, e편한세상부평그랑힐스)",37.5171266,126.7004808,0
2468,르네상스약국,"인천광역시 미추홀구 경원대로 869, 르네상스빌딩 504호 (주안동)",37.4604009,126.6891695,0
2475,한아름약국,"인천광역시 미추홀구 경원대로 869, (주안동, 르네상스빌딩)",37.4604009,126.6891695,0
2481,VIP우리약국,"인천광역시 미추홀구 경인로 433, (주안동)",37.4582685,126.6884441,0
2487,위케어연수약국,"인천광역시 연수구 먼우금로 302, 203호 (연수동, 연수유천아파트)",37.4228017,126.6834091,0
2489,건강프라자약국,"인천광역시 미추홀구 경인로 431-1, (주안동)",37.4582964,126.6881775,0
2493,큰사랑약국,"인천광역시 남동구 석정로 483, 1층일부호 (간석동)",37.4661052,126.6893434,0
2497,튼튼약국,"인천광역시 미추홀구 경인로 430, 1층 (주안동)",37.4576327,126.6879018,0
2502,참사랑약국,"인천광역시 연수구 경원대로 184, 이마트 3층 (동춘동)",37.4042407,126.6811495,0
2504,누리약국,"인천광역시 계양구 효서로 53, (효성동)",37.5277114,126.7017102,0
2507,대한약국,"인천광역시 연수구 비류대로 435, (연수동)",37.4243796,126.6830119,0
2513,굿모닝약국,"인천광역시 미추홀구 소성로 333, 1층 (문학동)",37.4375953,126.684277,0
2714,옥신온누리약국,"인천광역시 서구 고래울로 29, (가좌동)",37.4869657,126.6856838,0
2723,시민온누리약국,"인천광역시 미추홀구 미추홀대로 688, 1층 101호 (주안동)",37.4587645,126.6804992,0
2340,신천지약국,"인천광역시 미추홀구 경인로 485, (주안동)",37.4597476,126.6934951,0
3018,사랑의약국,"인천광역시 서구 원적로 96, (가좌동)",37.4947818,126.682603,0
2949,중앙약국,"인천광역시 미추홀구 매소홀로 474, (학익동)",37.4392709,126.6747293,0
2951,메디칼약국,"인천광역시 미추홀구 인하로 251, (주안동)",37.44851,126.675968,0
2956,누리약국,"인천광역시 연수구 원인재로 14, 101호 (동춘동, 무지개상가)",37.4015427,126.6704448,0
2959,늘사랑약국,"인천광역시 연수구 앵고개로264번길 46, 105호 (동춘동)",37.4066929,126.670838,0
2968,신동아청수약국,"인천광역시 미추홀구 매소홀로 470, (학익동)",37.439305,126.67437,0
2973,연수전문약국,"인천광역시 연수구 앵고개로 242, 제일빌딩 116호,118호,120호 (동춘동)",37.4086686,126.6708526,0
2975,튼튼약국,"인천광역시 연수구 앵고개로 242, 제일빌딩 1층 101호,102호 (동춘동)",37.4086686,126.6708526,0
2977,대산프라자약국,"인천광역시 연수구 앵고개로246번길 10, 107,108호 (동춘동)",37.4084221,126.6706195,0
2983,푸른약국,"인천광역시 연수구 먼우금로 96, 1층 (동춘동)",37.4075654,126.6704665,0
2988,복음약국,"인천광역시 연수구 먼우금로 88, 상산빌딩 304호 (동춘동)",37.4067429,126.6703792,0
2992,시티약국,"인천광역시 서구 발산로 6, 아인시티 주차타워 113호 (원당동)",37.5935878,126.7092856,0
3000,다정한온누리약국,"인천광역시 미추홀구 매소홀로 466, 1층 (학익동)",37.439354,126.6736523,0
3007,서광약국,"인천광역시 서구 원적로 100, 가좌로얄프라자 101, 102호 (가좌동)",37.4950219,126.6828315,0
3015,에버그린약국,"인천광역시 서구 건지로 371, 1층 1호 (가좌동)",37.4969488,126.6831268,0
3020,굿윌드림약국,"인천광역시 서구 원적로 103, (가좌동)",37.4956637,126.6827146,0
2736,주안동서약국,"인천광역시 미추홀구 미추홀대로 700, (주안동)",37.4598787,126.6804968,0
3028,성호약국,"인천광역시 서구 원적로 85, 310호 (가좌동, 우신프라자)",37.4945665,126.6814273,0
3033,한마음약국,"인천광역시 서구 원적로 85, 우신프라자 210호 (가좌동)",37.4945665,126.6814273,0
3034,세인약국,"인천광역시 미추홀구 제일로 42-1, (도화동)",37.458592,126.6749392,0
3045,아플때약국,"인천광역시 미추홀구 인하로221번길 6, 102-1호 (주안동)",37.4487197,126.6730074,0
3050,신태양옵티마약국,"인천광역시 미추홀구 인주대로 332, 104호 (주안동)",37.4514145,126.6733718,0
3056,참조은약국,"인천광역시 미추홀구 제일로 38, (도화동)",37.4585779,126.6744274,0
3060,뉴코아약국,"인천광역시 연수구 용담로 11, 205호 (청학동, 시대아파트상가)",37.4214859,126.6691397,0
3066,우리팜아름약국,"인천광역시 연수구 용담로 11, 2층 202-1호 (청학동, 시대아파트상가)",37.4214859,126.6691397,0
3068,아라한별약국,"인천광역시 서구 서로3로 198, 103호 (원당동)",37.5973486,126.7078985,0
3070,도화태평양약국,"인천광역시 미추홀구 제일로 34, 1층 (도화동)",37.4585996,126.6739486,0
3073,큰나무약국,"인천광역시 미추홀구 매소홀로 442, (학익동)",37.4395714,126.6710608,0
3087,송도캠퍼스약국,"인천광역시 연수구 송도과학로27번길 55, 3층 A-311호 (송도동, 롯데캐슬 캠퍼스타운)",37.3881981,126.6650323,0
3090,캠퍼스메이플약국,"인천광역시 연수구 송도과학로27번길 55, A동 107호 (송도동, 롯데캐슬캠퍼스타운)",37.3881981,126.6650323,0
3093,건지약국,"인천광역시 서구 신진말로 30, 1층 (가좌동, 쌍용체육관)",37.4929902,126.6790344,0
2945,주안튼튼약국,"인천광역시 미추홀구 석정로 391, 1층 (주안동)",37.4671922,126.6789996,0
2939,보람약국,"인천광역시 서구 원적로 120, 인성프라자 103호 (가좌동)",37.496481,126.6845076,0
2937,검단스마일약국,"인천광역시 서구 발산로 17, 메가타워 106호 (원당동)",37.5928707,126.710216,0
2928,종로약국,"인천광역시 연수구 앵고개로 250, 1층 (동춘동)",37.4081883,126.6715185,0
2741,태성약국,"인천광역시 미추홀구 미추홀대로 696, 태성빌딩 1층 일부호 (주안동)",37.4595728,126.6804363,0
2745,신기시장약국,"인천광역시 미추홀구 인하로 275, 1층 101호 (주안동)",37.4483238,126.6787221,0
2752,박하향약국,"인천광역시 서구 이음대로 392, 메트로시티 106,107호 (원당동)",37.5926069,126.7127253,0
2769,신기메디칼약국,"인천광역시 미추홀구 인하로 273, (주안동)",37.4483381,126.6785536,0
2778,한사랑약국,"인천광역시 미추홀구 석정로 411, (주안동,금창빌딩 402호)",37.4669374,126.6813596,0
2780,다정약국,"인천광역시 미추홀구 미추홀대로 663-1, 1층 (주안동)",37.4567082,126.679705,0
2785,해봄약국,"인천광역시 서구 장고개로337번길 7, 103호 (가좌동)",37.4927844,126.6860858,0
2787,무지개약국,"인천광역시 연수구 새말로 31, (연수동)",37.4224525,126.6750098,0
2796,검단아라태평양약국,"인천광역시 서구 이음대로 378, 로뎀타워 1층 109~111호 (원당동)",37.5939028,126.7125995,0
2806,명신약국,"인천광역시 미추홀구 학익소로61번길 135, (학익동)",37.4433455,126.6774419,0
2811,한울약국,"인천광역시 연수구 새말로 32, (연수동)",37.4222533,126.6747603,0
2813,민선당약국,"인천광역시 미추홀구 인하로 269, (주안동)",37.4483223,126.6780788,0
2819,온사랑온누리약국,"인천광역시 미추홀구 미추홀대로 715, 101호 (주안동)",37.4613859,126.6799607,0
2829,팜프라자 연수제일약국,"인천광역시 연수구 앵고개로 266, 한양2차아파트(롯데슈퍼) 상가A동 1층 일부호 (동춘동)",37.4069787,126.6728284,0
2833,주안정약국,"인천광역시 미추홀구 미추홀대로719번길 4, 부성PINE 104,105,106호 (주안동)",37.4619651,126.6797889,0
2835,주안허브약국,"인천광역시 미추홀구 주안로 86, 주안역 지하도상가 239호 (주안동)",37.4638536,126.6792319,0
2840,일화약국,"인천광역시 서구 장고개로337번길 16, 가좌한신 휴아파트 상가 408호 (가좌동)",37.4931242,126.6853525,0
2851,늘푸른약국,"인천광역시 미추홀구 인하로 261, (주안동)",37.4484097,126.6772675,0
2856,동아온누리약국,"인천광역시 연수구 앵고개로264번길 10-1, (동춘동, 아촌빌딩)",37.4072116,126.6722836,0
2860,서광약국,"인천광역시 미추홀구 경인로 347, (주안동,1층)",37.4588157,126.6787244,0
2868,가좌메디칼약국,"인천광역시 서구 원적로96번길 26, (가좌동)",37.4934009,126.6846104,0
2878,행복한우리약국,"인천광역시 연수구 앵고개로 256, 101호 (동춘동, 웅지프라자)",37.4078378,126.6720322,0
2879,365검단우리약국,"인천광역시 서구 발산로5번길 12, 인천검단 엔젤리움1차 윈팰리스 107호 (원당동)",37.5933767,126.7110851,0
2885,공단시장약국,"인천광역시 미추홀구 길파로 16, (주안동)",37.4671434,126.6796899,0
2889,수성당약국,"인천광역시 미추홀구 경인로 344, (주안동)",37.4583609,126.6782666,0
2890,수프라자약국,"인천광역시 연수구 앵고개로264번길 30-4, 영남프라자 1층 102호 (동춘동)",37.4068194,126.6718282,0
2902,한결약국,"인천광역시 서구 고래울로 4, (가좌동)",37.4887503,126.6835393,0
2911,딸기약국,"인천광역시 서구 건지로 402, 402동 105호 (가좌동, 가좌한신휴플러스)",37.4952507,126.6846641,0
2920,늘푸른약국,"인천광역시 연수구 앵고개로 250, 204호 (동춘동)",37.4081883,126.6715185,0
2342,참좋은약국,"인천광역시 부평구 마장로 383, (산곡동)",37.512367,126.7036134,0
2336,맑은샘약국,"인천광역시 부평구 마장로 287, 1층 (산곡동, 한양프라자)",37.5036343,126.7019139,0
1517,한가람약국,"인천광역시 남동구 남동대로 860, 106호 (간석동, 간석래미안자이1상가)",37.4589346,126.7106361,0
1831,이화약국,"인천광역시 계양구 경명대로 1049, 2층 (계산동)",37.5438404,126.7234273,0
1746,힐링팜약국,"인천광역시 남동구 미래로 6, 101호 (구월동)",37.4506397,126.7050731,0
1751,대동약국,"인천광역시 연수구 선학로68번길 4, (선학동)",37.4235116,126.7013346,0
1756,우리온누리약국,"인천광역시 부평구 원적로 434, 202호 (산곡동, 혜성프라자)",37.503328,126.7146268,0
1760,혜성프라자약국,"인천광역시 부평구 원적로 434, (산곡동, 혜성프라자111호,113호)",37.503328,126.7146268,0
1761,그린약국,"인천광역시 남동구 석산로 131, 1층 1호 (간석동)",37.4604809,126.7064253,0
1764,부평그랜드약국,"인천광역시 부평구 경원대로 1286, (부평동)",37.490419,126.7118696,0
1787,태평양약국,"인천광역시 계양구 계양대로 149, 1층 (계산동)",37.537274,126.7222203,0
1791,윤슬약국,"인천광역시 남동구 인하로507번길 4, 벽성빌딩 102호 (구월동)",37.4434516,126.7032138,0
1798,구월우리약국,"인천광역시 남동구 인하로507번길 18, 103호 (구월동)",37.4440249,126.703264,0
1803,별약국,"인천광역시 남동구 인하로507번길 24, 1층일부호 (구월동)",37.4443937,126.7033024,0
1807,신생약국,"인천광역시 부평구 원길로 19, (청천동)",37.5054817,126.7143903,0
1809,교대약국,"인천광역시 계양구 계산로 89, 1층 (계산동)",37.5377711,126.7221512,0
1821,은하약국,"인천광역시 계양구 경명대로 1048, 동성빌딩 2층 (계산동)",37.543162,126.7232838,0
1824,동인천약국,"인천광역시 연수구 선학로 101, 104호 (선학동, 뉴서울상가)",37.4253769,126.7004445,0
1838,계산365약국,"인천광역시 계양구 계양대로 214, (계산동)",37.5430595,126.7230321,0
1970,황약국,"인천광역시 부평구 마장로 82, 현대다섬프라자 103호 (십정동)",37.4860467,126.7082936,0
1842,부평이화약국,"인천광역시 부평구 경원대로 1270, 101호 (부평동)",37.489638,126.7104936,0
1849,성심약국,"인천광역시 계양구 계양대로 187, 1층 (계산동)",37.5406422,126.7223333,0
1851,다정약국,"인천광역시 부평구 부영로189번길 51, (산곡동, 오남프라자 508호일부)",37.5021433,126.7129333,0
1853,로데오약국,"인천광역시 남동구 인하로507번길 63, 112,113호 (구월동)",37.4461857,126.7028335,0
1863,푸른약국,"인천광역시 부평구 부영로189번길 51, 1층 104호 (산곡동, 오남프라자)",37.5021433,126.7129333,0
1868,에스약국,"인천광역시 남동구 인하로 501, 1층 (구월동)",37.4435334,126.7023931,0
1871,건강사랑약국,"인천광역시 부평구 경원대로 1266, (부평동)",37.4894356,126.7101662,0
1874,계산온누리약국,"인천광역시 계양구 경명대로 1043, (계산동)",37.5437838,126.7228109,0
1884,오아시스약국,"인천광역시 남동구 인하로 497-8, 1층 일부호 (구월동, 오아시스빌딩)",37.4435725,126.7021072,0
1905,인천메디칼약국,"인천광역시 남동구 인하로 497-5, 103호 (구월동, 푸른세상안과)",37.4436053,126.7015922,0
1924,열린약국,"인천광역시 남동구 성말로13번길 15, (구월동, 메인프라자 303-1호 일부)",37.4462791,126.7018166,0
1929,한빛약국,"인천광역시 남동구 성말로13번길 15, 125호 (구월동, 메인프라자)",37.4462791,126.7018166,0
1931,현대메디칼약국,"인천광역시 부평구 경원대로 1242, (산곡동)",37.4876012,126.7088392,0
1953,비타민온누리약국,"인천광역시 계양구 새벌로 112, 마스터즈 115호 (효성동)",37.5270737,126.7175095,0
1742,아라온누리약국,"인천광역시 계양구 장기로 26, 1층 (장기동)",37.5786525,126.7349692,0
1738,생생온누리약국,"인천광역시 남동구 남동대로 931, 103호 (간석동)",37.4654848,126.7075113,0
1737,유영약국,"인천광역시 계양구 하느재로20번길 1, (계산동)",37.5454538,126.7252248,0
1726,건강약국,"인천광역시 부평구 부영로 165, (산곡동)",37.5009455,126.7148832,0
1521,계산약국,"인천광역시 계양구 경명대로 1096, (계산동)",37.5429398,126.7287171,0
1536,바로약국,"인천광역시 남동구 인주대로 645, 대신빌딩 A동 101호 (구월동)",37.449934,126.7087629,0
1542,중앙성심약국,"인천광역시 계양구 경명대로 1090, 106호 (계산동, 계산메가타운)",37.5429804,126.7280619,0
1555,중앙판도라약국,"인천광역시 남동구 남동대로 772, 1층 2호 (구월동, 동성빌딩)",37.4511704,126.7082545,0
1557,리즈약국,"인천광역시 남동구 석산로 159, 4층 (간석동)",37.4607825,126.7097565,0
1567,이레약국,"인천광역시 남동구 구월남로 172, (구월동)",37.4527642,126.7084537,0
1570,청솔온누리약국,"인천광역시 남동구 남동대로 728, 1층 3호 (구월동, 명보빌딩상가)",37.4472374,126.7076204,0
1580,수현약국,"인천광역시 부평구 부평대로 301, (청천동, 남광센트렉스 105호일부)",37.5188242,126.7208225,0
1584,새육일약국,"인천광역시 남동구 남동대로 705, 1층 (구월동)",37.445233,126.7066937,0
1598,화생약국,"인천광역시 계양구 계양대로 44, 103호,104호 (작전동, 덕용프라자)",37.5277438,126.7228142,0
1608,올리브편한 약국,"인천광역시 남동구 남동대로 880, 올리브백화점 1층 120,121호 (간석동)",37.4609577,126.7088897,0
1618,연공약국,"인천광역시 남동구 남동대로 886, 105,106호 (간석동)",37.4616233,126.7087119,0
1624,실로암약국,"인천광역시 남동구 남동대로 890, 101호 (간석동, 탑메디칼빌딩)",37.4618407,126.7086711,0
1626,100세약국,"인천광역시 남동구 남동대로 892, 1층 (간석동)",37.4620925,126.7086305,0
1631,고려원약국,"인천광역시 계양구 경명대로 1074, 102호 (계산동, 삼환빌딩)",37.5431052,126.726236,0
1639,쓰담쓰담약국,"인천광역시 계양구 계양대로 45, 1층 일부호 (작전동)",37.5277868,126.7221623,0
1644,휴베이스 가정약국,"인천광역시 부평구 길주로494번길 25, 1층 일부호 (청천동)",37.5064675,126.7171027,0
1647,희망찬약국,"인천광역시 남동구 남동대로 900, (간석동)",37.4627226,126.7085617,0
1654,새백화점약국,"인천광역시 남동구 남동대로 875, (간석동)",37.4606849,126.7081348,0
1655,성모약국,"인천광역시 남동구 남동대로 875, 세화빌딩 (간석동)",37.4606849,126.7081348,0
1662,대명약국,"인천광역시 계양구 효서로 233, 109호 (작전동)",37.5280966,126.7220574,0
1668,우리팜약국,"인천광역시 계양구 계양대로 53, 휘림빌딩 1층 (작전동)",37.5285769,126.7221433,0
1675,민재약국,"인천광역시 계양구 계양대로 55, 1층 (작전동)",37.528754,126.7221139,0
1680,수정약국,"인천광역시 계양구 계양대로 90, 1층 (작전동)",37.5318165,126.7228652,0
1688,간석열린약국,"인천광역시 남동구 남동대로 889-1, B01호 (간석동)",37.4619006,126.7080077,0
1692,성지약국,"인천광역시 계양구 계양대로 27, (작전동)",37.5261776,126.7212582,0
1694,올리브약국,"인천광역시 남동구 남동대로 893, (간석동)",37.462083,126.7080145,0
1709,메디유약국,"인천광역시 남동구 남동대로 899, 1층 일부호 (간석동)",37.4626639,126.7079723,0
1711,종로약국,"인천광역시 계양구 경명대로 1068, 1층 1호 (계산동)",37.5431451,126.7255073,0
1954,연두약국,"인천광역시 남동구 인하로489번길 4, 1층일부호 (구월동, 교보생명)",37.4436365,126.7012603,0
1973,솔로몬약국,"인천광역시 부평구 경원대로 1238, (산곡동)",37.4872335,126.7085064,0
2334,십정시장약국,"인천광역시 부평구 배곶로 63, (십정동)",37.4735276,126.69603,0
2245,은행약국,"인천광역시 부평구 마장로242번길 5, (산곡동)",37.4997766,126.7030372,0
2193,풍림약국,"인천광역시 연수구 함박뫼로 250, 101호 (연수동, 풍림1차아파트상가)",37.4178343,126.6918256,0
2195,맑은약국,"인천광역시 미추홀구 경원대로652번길 31, (관교동)",37.4421863,126.6947747,0
2197,간석태평양약국,"인천광역시 남동구 석산로 52, (간석동)",37.4610209,126.6975898,0
2200,그린프라자약국,"인천광역시 계양구 안남로 512, (효성동)",37.5287566,126.7113861,0
2202,동암가장큰약국,"인천광역시 부평구 열우물로 66, 해동빌딩 1층 일부호 (십정동)",37.4737709,126.6996234,0
2210,해맑은약국,"인천광역시 부평구 경원대로1130번길 29, (십정동)",37.480714,126.7007416,0
2216,탑프라자약국,"인천광역시 남동구 경인로 520, B04-1호 (간석동, 탑프라자빌딩)",37.460777,126.6970709,0
2218,강봉윤약국,"인천광역시 연수구 원인재로 315, 110호 (연수동, 주공1단지상가)",37.4220483,126.6916148,0
2220,자애약국,"인천광역시 연수구 원인재로 315, 106호 (연수동, 주공임대상가)",37.4220483,126.6916148,0
2227,휴약국,"인천광역시 부평구 마장로242번길 19, (산곡동, 113호)",37.4997388,126.7037874,0
2232,효성일층약국,"인천광역시 계양구 안남로 548, 132호 (효성동, 효성프라자)",37.5319462,126.7110823,0
2234,효성프라자약국,"인천광역시 계양구 안남로 548, (효성동)",37.5319462,126.7110823,0
2235,마음약국,"인천광역시 부평구 열우물로 75, 103호 (십정동)",37.4740583,126.6984609,0
2239,베드로약국,"인천광역시 계양구 안남로554번길 1, (효성동, 대정프라자)",37.5324682,126.7107676,0
2248,희망약국,"인천광역시 부평구 마장로 296, 3층 (산곡동)",37.5049829,126.7040723,0
1975,메디팜큰사랑약국,"인천광역시 부평구 경원대로 1236, (산곡동, 선현빌딩)",37.4870779,126.7083724,0
2258,봄약국,"인천광역시 계양구 봉오대로555번길 14, 205호 (효성동, 썬프라자)",37.5319071,126.7101183,0
2266,동암온누리약국,"인천광역시 부평구 열우물로 90, 상가F동 119호 (십정동, 더샵부평센트럴시티)",37.4770645,126.6979629,0
2268,봄빛가득약국,"인천광역시 부평구 열우물로 90, 상가F동 3층 312호 (십정동, 더샵부평센트럴시티)",37.4770645,126.6979629,0
2276,한사랑약국,"인천광역시 남동구 주안로 231, 1층 일부(1,2)호 (간석동)",37.4635081,126.6955926,0
2278,영광약국,"인천광역시 부평구 마장로 310, 101호 (산곡동, 롯데프라자)",37.5056548,126.7036741,0
2281,365그랜드온누리약국,"인천광역시 부평구 마장로 314, 성수빌딩 101호 (산곡동)",37.5060351,126.7036945,0
2286,미소약국,"인천광역시 미추홀구 주안로 226, 217호 (주안동, 주안더월드스테이트 1단지 중심상가동 217호)",37.4629017,126.6953334,0
2292,봄빛약국,"인천광역시 부평구 마장로 320, 101호 (산곡동, 한화프라자)",37.5066003,126.7037115,0
2300,웰빙약국,"인천광역시 부평구 마장로 338, 산곡행복의집 1층 일부호 (산곡동)",37.5080933,126.7038419,0
2303,도담약국,"인천광역시 부평구 세월천로 42, 1층 (청천동)",37.5131208,126.7049035,0
2308,이조약국,"인천광역시 계양구 안남로 565, (효성동)",37.5337238,126.7097698,0
2312,새유진약국,"인천광역시 계양구 안남로 571, (효성동)",37.5341269,126.7098186,0
2317,동암조은약국,"인천광역시 부평구 열우물로87번길 16, 1층 일부호 (십정동)",37.4746301,126.6967377,0
2328,부평종로약국,"인천광역시 부평구 세월천로 46, (청천동)",37.513197,126.7042201,0
2191,콩약국,"인천광역시 부평구 열우물로 64, 1층 105호 (십정동)",37.4736145,126.699841,0
2184,한아름온누리약국,"인천광역시 부평구 세월천로 16, 101호 (청천동, 대우2차상가)",37.5146664,126.7083807,0
2179,연세약국,"인천광역시 부평구 부흥로123번길 43, 1층 (산곡동, 진흥빌딩)",37.5006185,126.7054284,0
2174,하하약국,"인천광역시 부평구 열우물로 51, (십정동)",37.4724462,126.7000711,0
1984,예스약국,"인천광역시 부평구 경원대로 1234, (산곡동)",37.4868839,126.7082518,0
1988,벧엘약국,"인천광역시 부평구 경인로701번길 58, (십정동)",37.4724085,126.7053831,0
1990,대산약국,"인천광역시 계양구 새벌로 120, 상가동 202호 (효성동, 대산아파트)",37.5275427,126.7171326,0
1991,매일여는온누리약국,"인천광역시 남동구 예술로 198, CGV 홈플러스 (구월동)",37.451739,126.7019625,0
1999,신현프라자약국,"인천광역시 남동구 인주대로 582, 108호 (구월동, 신현프라자)",37.4497834,126.7016055,0
2015,체리약국,"인천광역시 남동구 예술로 126, 링크126 1층 125호 (구월동)",37.4451296,126.7008867,0
2031,타워약국,"인천광역시 남동구 예술로 138, 137호 (구월동, 이토타워)",37.4463303,126.7009869,0
2036,윤약국,"인천광역시 연수구 학나래로118번길 9, 107호 (선학동, 선학프라자)",37.4279752,126.6985046,0
2040,아름다운약국,"인천광역시 계양구 새벌로 126, 104호 (효성동)",37.5281743,126.7170183,0
2044,남부온누리약국,"인천광역시 부평구 동암남로 10, (십정동)",37.4707536,126.7046936,0
2050,인천우리약국,"인천광역시 계양구 봉오대로 613, 102호 (효성동)",37.5307918,126.717116,0
2057,미소약국,"인천광역시 부평구 안남로222번길 27, (산곡동)",37.5030668,126.7103109,0
2061,호산나약국,"인천광역시 부평구 안남로222번길 27, 4층 (산곡동, 경남종합상가)",37.5030668,126.7103109,0
2063,건강한약국,"인천광역시 부평구 동암남로 4, 103호 (십정동, 리치프라자)",37.4708566,126.7038092,0
2080,최병원약국,"인천광역시 부평구 원적로 392, (산곡동)",37.5036986,126.7099922,0
2082,연성약국,"인천광역시 남동구 남동서로236번길 30, 논현2차푸르지오시티 1층 114호 (논현동)",37.40959,126.6951245,0
2088,동암수약국,"인천광역시 부평구 아트센터로 40, 1층 일부호 (십정동)",37.4715641,126.7035005,0
2095,화랑약국,"인천광역시 연수구 원인재로 312, 104호 (연수동, 경남아파트상가)",37.4223175,126.6960443,0
2101,동암광장약국,"인천광역시 부평구 동암광장로14번길 4, 스타플랙스 102호 (십정동)",37.4715057,126.7025707,0
2105,동암스타약국,"인천광역시 부평구 동암광장로 14, 1층 일부호 (십정동)",37.4715754,126.7023295,0
2112,명문약국,"인천광역시 계양구 아나지로 191, 1층 (효성동)",37.5255243,126.7132385,0
2121,전방메디칼약국,"인천광역시 부평구 안남로 261, 102호, 117호 (산곡동, 전방프라자)",37.5062123,126.7086197,0
2130,늘사랑약국,"인천광역시 남동구 문화서로4번길 38, (구월동)",37.4447889,126.6969437,0
2138,푸른건강약국,"인천광역시 부평구 마장로 156, (산곡동)",37.4921749,126.7048937,0
2146,동암프라자약국,"인천광역시 부평구 열우물로 50, (십정동)",37.472588,126.7009444,0
2153,건강약국,"인천광역시 남동구 인주대로 541, (구월동)",37.4505693,126.6969529,0
2156,소망약국,"인천광역시 부평구 열우물로 45, 103호 (십정동, 삼정빌딩)",37.4721115,126.7004358,0
2160,열린약국,"인천광역시 부평구 열우물로 54, (십정동)",37.4728826,126.7005486,0
2163,신연수약국,"인천광역시 연수구 원인재로 286, 대림아파트 상가동 101호 (연수동)",37.419047,126.6926758,0
5122,호수약국,"인천광역시 연수구 아트센터대로 87, 커낼워크D4 WINTER 402동 153호 (송도동)",37.4023784,126.6401511,0
